[{"station_cd":2100101,"station_g_cd":1130212,"station_name":"池袋","station_name_k":"イケブクロ","station_name_r":"ikebukuro","line_cd":21001,"pref_cd":13,"post":"","add":"東京都豊島区","lon":139.710678,"lat":35.730924,"open_ymd":"","close_ymd":"","e_sort":"2100101"},
{"station_cd":2100102,"station_g_cd":2100102,"station_name":"北池袋","station_name_k":"キタイケブクロ","station_name_r":"kitaikebukuro","line_cd":21001,"pref_cd":13,"post":"170-0011","add":"豊島区池袋本町１-３６-６","lon":139.716749,"lat":35.741283,"open_ymd":"","close_ymd":"","e_sort":"2100102"},
{"station_cd":2100103,"station_g_cd":2100103,"station_name":"下板橋","station_name_k":"シモイタバシ","station_name_r":"shimoitabashi","line_cd":21001,"pref_cd":13,"post":"170-0011","add":"豊島区池袋本町４-４３-１１","lon":139.714785,"lat":35.745721,"open_ymd":"","close_ymd":"","e_sort":"2100103"},
{"station_cd":2100104,"station_g_cd":2100104,"station_name":"大山","station_name_k":"オオヤマ","station_name_r":"ooyama","line_cd":21001,"pref_cd":13,"post":"173-0023","add":"板橋区大山町４-１","lon":139.702589,"lat":35.748398,"open_ymd":"","close_ymd":"","e_sort":"2100104"},
{"station_cd":2100105,"station_g_cd":2100105,"station_name":"中板橋","station_name_k":"ナカイタバシ","station_name_r":"nakaitabashi","line_cd":21001,"pref_cd":13,"post":"173-0021","add":"板橋区弥生町３３-１","lon":139.694628,"lat":35.756214,"open_ymd":"","close_ymd":"","e_sort":"2100105"},
{"station_cd":2100106,"station_g_cd":2100106,"station_name":"ときわ台","station_name_k":"トキワダイ","station_name_r":"tokiwadai","line_cd":21001,"pref_cd":13,"post":"174-0071","add":"板橋区常盤台１-４３-１","lon":139.689015,"lat":35.758771,"open_ymd":"","close_ymd":"","e_sort":"2100106"},
{"station_cd":2100107,"station_g_cd":2100107,"station_name":"上板橋","station_name_k":"カミイタバシ","station_name_r":"kamiitabashi","line_cd":21001,"pref_cd":13,"post":"174-0076","add":"板橋区上板橋２-３６-７","lon":139.67641,"lat":35.763596,"open_ymd":"","close_ymd":"","e_sort":"2100107"},
{"station_cd":2100108,"station_g_cd":2100108,"station_name":"東武練馬","station_name_k":"トウブネリマ","station_name_r":"toubunerima","line_cd":21001,"pref_cd":13,"post":"175-0083","add":"板橋区徳丸２-２-１４","lon":139.661964,"lat":35.768698,"open_ymd":"","close_ymd":"","e_sort":"2100108"},
{"station_cd":2100109,"station_g_cd":2100109,"station_name":"下赤塚","station_name_k":"シモアカツカ","station_name_r":"shimoakatsuka","line_cd":21001,"pref_cd":13,"post":"175-0093","add":"板橋区赤塚新町１-２３-１","lon":139.644482,"lat":35.770558,"open_ymd":"","close_ymd":"","e_sort":"2100109"},
{"station_cd":2100110,"station_g_cd":2100110,"station_name":"成増","station_name_k":"ナリマス","station_name_r":"narimasu","line_cd":21001,"pref_cd":13,"post":"175-0094","add":"板橋区成増２-１３-１","lon":139.632708,"lat":35.777723,"open_ymd":"","close_ymd":"","e_sort":"2100110"},
{"station_cd":2100111,"station_g_cd":2100111,"station_name":"和光市","station_name_k":"ワコウシ","station_name_r":"wakoshi","line_cd":21001,"pref_cd":11,"post":"","add":"埼玉県和光市本町4-6","lon":139.612434,"lat":35.788507,"open_ymd":"","close_ymd":"","e_sort":"2100111"},
{"station_cd":2100112,"station_g_cd":2100112,"station_name":"朝霞","station_name_k":"アサカ","station_name_r":"asaka","line_cd":21001,"pref_cd":11,"post":"351-0011","add":"朝霞市本町２-１３-５２","lon":139.600321,"lat":35.796736,"open_ymd":"","close_ymd":"","e_sort":"2100112"},
{"station_cd":2100201,"station_g_cd":2100201,"station_name":"浅草","station_name_k":"アサクサ","station_name_r":"asakusa","line_cd":21002,"pref_cd":13,"post":"","add":"東京都台東区","lon":139.798214,"lat":35.711883,"open_ymd":"","close_ymd":"","e_sort":"2100201"},
{"station_cd":2100202,"station_g_cd":2100202,"station_name":"とうきょうスカイツリー","station_name_k":"トウキョウスカイツリー","station_name_r":"tokyo sky tree","line_cd":21002,"pref_cd":13,"post":"131-0045","add":"墨田区押上１丁目","lon":139.809332,"lat":35.71043,"open_ymd":"1902-04-01","close_ymd":"","e_sort":"2100202"},
{"station_cd":2100203,"station_g_cd":2100203,"station_name":"押上〈スカイツリー前〉","station_name_k":"オシアゲ　スカイツリーマエ","station_name_r":"oshiage skytree","line_cd":21002,"pref_cd":13,"post":"131-0045","add":"墨田区押上一丁目","lon":139.812935,"lat":35.710702,"open_ymd":"","close_ymd":"","e_sort":"2100203"},
{"station_cd":2100204,"station_g_cd":2100204,"station_name":"曳舟","station_name_k":"ヒキフネ","station_name_r":"hikifune","line_cd":21002,"pref_cd":13,"post":"131-0032","add":"墨田区東向島２丁目","lon":139.816634,"lat":35.718418,"open_ymd":"","close_ymd":"","e_sort":"2100204"},
{"station_cd":2100205,"station_g_cd":2100205,"station_name":"東向島","station_name_k":"ヒガシムコウジマ","station_name_r":"higashimukoujima","line_cd":21002,"pref_cd":13,"post":"131-0032","add":"墨田区東向島４丁目","lon":139.819306,"lat":35.724324,"open_ymd":"","close_ymd":"","e_sort":"2100205"},
{"station_cd":2100206,"station_g_cd":2100206,"station_name":"鐘ヶ淵","station_name_k":"カネガフチ","station_name_r":"kanegafuchi","line_cd":21002,"pref_cd":13,"post":"","add":"東京都墨田区墨田5丁目","lon":139.820344,"lat":35.733712,"open_ymd":"","close_ymd":"","e_sort":"2100206"},
{"station_cd":2100207,"station_g_cd":2100207,"station_name":"堀切","station_name_k":"ホリキリ","station_name_r":"horikiri","line_cd":21002,"pref_cd":13,"post":"120-0023","add":"足立区千住曙町","lon":139.817727,"lat":35.742977,"open_ymd":"","close_ymd":"","e_sort":"2100207"},
{"station_cd":2100208,"station_g_cd":2100208,"station_name":"牛田","station_name_k":"ウシダ","station_name_r":"ushida","line_cd":21002,"pref_cd":13,"post":"120-0023","add":"足立区千住曙町","lon":139.811816,"lat":35.744555,"open_ymd":"","close_ymd":"","e_sort":"2100208"},
{"station_cd":2100209,"station_g_cd":1132005,"station_name":"北千住","station_name_k":"キタセンジュ","station_name_r":"kitasennju","line_cd":21002,"pref_cd":13,"post":"120-0026","add":"足立区千住旭町","lon":139.805564,"lat":35.749891,"open_ymd":"","close_ymd":"","e_sort":"2100209"},
{"station_cd":2100210,"station_g_cd":2100210,"station_name":"小菅","station_name_k":"コスゲ","station_name_r":"kosuge","line_cd":21002,"pref_cd":13,"post":"120-0015","add":"足立区足立２丁目","lon":139.812935,"lat":35.759039,"open_ymd":"","close_ymd":"","e_sort":"2100210"},
{"station_cd":2100211,"station_g_cd":2100211,"station_name":"五反野","station_name_k":"ゴタンノ","station_name_r":"gotannno","line_cd":21002,"pref_cd":13,"post":"120-0015","add":"足立区足立３丁目","lon":139.809643,"lat":35.765852,"open_ymd":"","close_ymd":"","e_sort":"2100211"},
{"station_cd":2100212,"station_g_cd":2100212,"station_name":"梅島","station_name_k":"ウメジマ","station_name_r":"umejima","line_cd":21002,"pref_cd":13,"post":"123-0851","add":"足立区梅田７丁目","lon":139.797916,"lat":35.772437,"open_ymd":"","close_ymd":"","e_sort":"2100212"},
{"station_cd":2100213,"station_g_cd":2100213,"station_name":"西新井","station_name_k":"ニシアライ","station_name_r":"nishiarai","line_cd":21002,"pref_cd":13,"post":"123-0843","add":"足立区西新井栄町２丁目","lon":139.790372,"lat":35.777323,"open_ymd":"","close_ymd":"","e_sort":"2100213"},
{"station_cd":2100214,"station_g_cd":2100214,"station_name":"竹ノ塚","station_name_k":"タケノツカ","station_name_r":"takenotsuka","line_cd":21002,"pref_cd":13,"post":"121-0813","add":"足立区竹の塚６丁目","lon":139.790788,"lat":35.794368,"open_ymd":"","close_ymd":"","e_sort":"2100214"},
{"station_cd":2100429,"station_g_cd":2100429,"station_name":"六実","station_name_k":"ムツミ","station_name_r":"mutsumi","line_cd":21004,"pref_cd":12,"post":"270-2204","add":"松戸市六実４-６-１","lon":139.999195,"lat":35.793715,"open_ymd":"","close_ymd":"","e_sort":"2100429"},
{"station_cd":2100430,"station_g_cd":2100430,"station_name":"新鎌ヶ谷","station_name_k":"シンカマガヤ","station_name_r":"shinnkamagaya","line_cd":21004,"pref_cd":12,"post":"273-0107","add":"千葉県鎌ケ谷市新鎌ケ谷一丁目13-1","lon":139.999455,"lat":35.780221,"open_ymd":"","close_ymd":"","e_sort":"2100430"},
{"station_cd":2100431,"station_g_cd":2100431,"station_name":"鎌ヶ谷","station_name_k":"カマガヤ","station_name_r":"kamagaya","line_cd":21004,"pref_cd":12,"post":"273-0113","add":"千葉県鎌ケ谷市道野辺中央2-1-10","lon":139.997266,"lat":35.763765,"open_ymd":"","close_ymd":"","e_sort":"2100431"},
{"station_cd":2100432,"station_g_cd":2100432,"station_name":"馬込沢","station_name_k":"マゴメザワ","station_name_r":"magomezawa","line_cd":21004,"pref_cd":12,"post":"273-0047","add":"船橋市藤原７-２-１","lon":139.992199,"lat":35.741586,"open_ymd":"","close_ymd":"","e_sort":"2100432"},
{"station_cd":2100433,"station_g_cd":2100433,"station_name":"塚田","station_name_k":"ツカダ","station_name_r":"tsukada","line_cd":21004,"pref_cd":12,"post":"273-0042","add":"船橋市前貝塚町５６４","lon":139.982859,"lat":35.722102,"open_ymd":"","close_ymd":"","e_sort":"2100433"},
{"station_cd":2100434,"station_g_cd":2100434,"station_name":"新船橋","station_name_k":"シンフナバシ","station_name_r":"shinnfunabashi","line_cd":21004,"pref_cd":12,"post":"273-0045","add":"船橋市山手１-３-１","lon":139.979765,"lat":35.710993,"open_ymd":"","close_ymd":"","e_sort":"2100434"},
{"station_cd":2100435,"station_g_cd":1131331,"station_name":"船橋","station_name_k":"フナバシ","station_name_r":"funabashi","line_cd":21004,"pref_cd":12,"post":"273-0005","add":"船橋市本町７丁目","lon":139.98436,"lat":35.7021,"open_ymd":"","close_ymd":"","e_sort":"2100435"},
{"station_cd":2100501,"station_g_cd":2100204,"station_name":"曳舟","station_name_k":"ヒキフネ","station_name_r":"hikifune","line_cd":21005,"pref_cd":13,"post":"131-0032","add":"墨田区東向島２丁目","lon":139.816634,"lat":35.718418,"open_ymd":"","close_ymd":"","e_sort":"2100501"},
{"station_cd":2100502,"station_g_cd":2100502,"station_name":"小村井","station_name_k":"オムライ","station_name_r":"omurai","line_cd":21005,"pref_cd":13,"post":"131-0044","add":"墨田区文花２-２０-１","lon":139.827595,"lat":35.710316,"open_ymd":"","close_ymd":"","e_sort":"2100502"},
{"station_cd":2100503,"station_g_cd":2100503,"station_name":"東あずま","station_name_k":"ヒガシアズマ","station_name_r":"higashiazuma","line_cd":21005,"pref_cd":13,"post":"131-0043","add":"墨田区立花４-２３-８","lon":139.831883,"lat":35.707067,"open_ymd":"","close_ymd":"","e_sort":"2100503"},
{"station_cd":2100504,"station_g_cd":2100504,"station_name":"亀戸水神","station_name_k":"カメイドスイジン","station_name_r":"kameidosuijinn","line_cd":21005,"pref_cd":13,"post":"136-0071","add":"江東区亀戸８-５-１","lon":139.833422,"lat":35.699976,"open_ymd":"","close_ymd":"","e_sort":"2100504"},
{"station_cd":2100505,"station_g_cd":1131323,"station_name":"亀戸","station_name_k":"カメイド","station_name_r":"kameido","line_cd":21005,"pref_cd":13,"post":"136-0071","add":"江東区亀戸５丁目","lon":139.826791,"lat":35.697708,"open_ymd":"","close_ymd":"","e_sort":"2100505"},
{"station_cd":2100601,"station_g_cd":2100213,"station_name":"西新井","station_name_k":"ニシアライ","station_name_r":"nishiarai","line_cd":21006,"pref_cd":13,"post":"123-0843","add":"足立区西新井栄町２丁目","lon":139.790372,"lat":35.777323,"open_ymd":"","close_ymd":"","e_sort":"2100601"},
{"station_cd":2100602,"station_g_cd":2100602,"station_name":"大師前","station_name_k":"ダイシマエ","station_name_r":"daishimae","line_cd":21006,"pref_cd":13,"post":"123-0841","add":"足立区西新井１-３-１","lon":139.781647,"lat":35.778989,"open_ymd":"","close_ymd":"","e_sort":"2100602"},
{"station_cd":2200101,"station_g_cd":1130212,"station_name":"池袋","station_name_k":"イケブクロ","station_name_r":"ikebukuro","line_cd":22001,"pref_cd":13,"post":"171-0022","add":"東京都豊島区南池袋一丁目28-2","lon":139.711461,"lat":35.72913,"open_ymd":"","close_ymd":"","e_sort":"2200101"},
{"station_cd":2200102,"station_g_cd":2200102,"station_name":"椎名町","station_name_k":"シイナマチ","station_name_r":"shiinamachi","line_cd":22001,"pref_cd":13,"post":"171-0051","add":"豊島区長崎１-１-２２","lon":139.694363,"lat":35.726572,"open_ymd":"","close_ymd":"","e_sort":"2200102"},
{"station_cd":2200103,"station_g_cd":2200103,"station_name":"東長崎","station_name_k":"ヒガシナガサキ","station_name_r":"higashinagasaki","line_cd":22001,"pref_cd":13,"post":"171-0051","add":"豊島区長崎５-１-１","lon":139.683294,"lat":35.73003,"open_ymd":"","close_ymd":"","e_sort":"2200103"},
{"station_cd":2200104,"station_g_cd":2200104,"station_name":"江古田","station_name_k":"エコダ","station_name_r":"ekoda","line_cd":22001,"pref_cd":13,"post":"176-0005","add":"練馬区旭丘１-７８-７","lon":139.672814,"lat":35.737557,"open_ymd":"","close_ymd":"","e_sort":"2200104"},
{"station_cd":2200105,"station_g_cd":2200105,"station_name":"桜台","station_name_k":"サクラダイ","station_name_r":"sakuradai","line_cd":22001,"pref_cd":13,"post":"176-0002","add":"練馬区桜台１-５-１","lon":139.662602,"lat":35.738797,"open_ymd":"","close_ymd":"","e_sort":"2200105"},
{"station_cd":2200106,"station_g_cd":2200106,"station_name":"練馬","station_name_k":"ネリマ","station_name_r":"nerima","line_cd":22001,"pref_cd":13,"post":"176-0001","add":"練馬区練馬１-３-５","lon":139.654368,"lat":35.737893,"open_ymd":"","close_ymd":"","e_sort":"2200106"},
{"station_cd":2200107,"station_g_cd":2200107,"station_name":"中村橋","station_name_k":"ナカムラバシ","station_name_r":"nakamurabashi","line_cd":22001,"pref_cd":13,"post":"176-0023","add":"練馬区中村北４-２-１","lon":139.637456,"lat":35.736767,"open_ymd":"","close_ymd":"","e_sort":"2200107"},
{"station_cd":2200108,"station_g_cd":2200108,"station_name":"富士見台","station_name_k":"フジミダイ","station_name_r":"fujimidai","line_cd":22001,"pref_cd":13,"post":"176-0021","add":"練馬区貫井３-７-４","lon":139.62969,"lat":35.735867,"open_ymd":"","close_ymd":"","e_sort":"2200108"},
{"station_cd":2200109,"station_g_cd":2200109,"station_name":"練馬高野台","station_name_k":"ネリマタカノダイ","station_name_r":"nerimatakanodai","line_cd":22001,"pref_cd":13,"post":"177-0033","add":"練馬区高野台１-７-２７","lon":139.616749,"lat":35.740622,"open_ymd":"","close_ymd":"","e_sort":"2200109"},
{"station_cd":2200110,"station_g_cd":2200110,"station_name":"石神井公園","station_name_k":"シャクジイコウエン","station_name_r":"shakujiikouenn","line_cd":22001,"pref_cd":13,"post":"177-0041","add":"練馬区石神井町３-２３-１０","lon":139.606981,"lat":35.743563,"open_ymd":"","close_ymd":"","e_sort":"2200110"},
{"station_cd":2200111,"station_g_cd":2200111,"station_name":"大泉学園","station_name_k":"オオイズミガクエン","station_name_r":"ooizumigakuenn","line_cd":22001,"pref_cd":13,"post":"178-0063","add":"練馬区東大泉１-２９-７","lon":139.586732,"lat":35.749406,"open_ymd":"","close_ymd":"","e_sort":"2200111"},
{"station_cd":2200112,"station_g_cd":2200112,"station_name":"保谷","station_name_k":"ホウヤ","station_name_r":"houya","line_cd":22001,"pref_cd":13,"post":"202-0012","add":"西東京市東町３-１４-３０","lon":139.567753,"lat":35.748222,"open_ymd":"","close_ymd":"","e_sort":"2200112"},
{"station_cd":2200113,"station_g_cd":2200113,"station_name":"ひばりヶ丘","station_name_k":"ヒバリガオカ","station_name_r":"hibarigaoka","line_cd":22001,"pref_cd":13,"post":"202-0005","add":"東京都西東京市住吉町三丁目","lon":139.545852,"lat":35.751485,"open_ymd":"","close_ymd":"","e_sort":"2200113"},
{"station_cd":2200114,"station_g_cd":2200114,"station_name":"東久留米","station_name_k":"ヒガシクルメ","station_name_r":"higashikurume","line_cd":22001,"pref_cd":13,"post":"203-0014","add":"東久留米市東本町１-８","lon":139.533739,"lat":35.760445,"open_ymd":"","close_ymd":"","e_sort":"2200114"},
{"station_cd":2200115,"station_g_cd":2200115,"station_name":"清瀬","station_name_k":"キヨセ","station_name_r":"kiyose","line_cd":22001,"pref_cd":13,"post":"204-0021","add":"清瀬市元町１-２-４","lon":139.519917,"lat":35.772221,"open_ymd":"","close_ymd":"","e_sort":"2200115"},
{"station_cd":2200301,"station_g_cd":2200301,"station_name":"小竹向原","station_name_k":"コタケムカイハラ","station_name_r":"kotake-mukaihara","line_cd":22003,"pref_cd":13,"post":"176-0004","add":"東京都練馬区小竹町二丁目16-15","lon":139.678572,"lat":35.743803,"open_ymd":"","close_ymd":"","e_sort":"2200301"},
{"station_cd":2200302,"station_g_cd":2200302,"station_name":"新桜台","station_name_k":"シンサクラダイ","station_name_r":"shinnsakuradai","line_cd":22003,"pref_cd":13,"post":"176-0002","add":"練馬区桜台１-２８-１１","lon":139.6683,"lat":35.74077,"open_ymd":"","close_ymd":"","e_sort":"2200302"},
{"station_cd":2200303,"station_g_cd":2200106,"station_name":"練馬","station_name_k":"ネリマ","station_name_r":"nerima","line_cd":22003,"pref_cd":13,"post":"176-0001","add":"練馬区練馬１-３-５","lon":139.654368,"lat":35.737893,"open_ymd":"","close_ymd":"","e_sort":"2200303"},
{"station_cd":2200401,"station_g_cd":2200106,"station_name":"練馬","station_name_k":"ネリマ","station_name_r":"nerima","line_cd":22004,"pref_cd":13,"post":"176-0001","add":"練馬区練馬１-３-５","lon":139.654368,"lat":35.737893,"open_ymd":"","close_ymd":"","e_sort":"2200401"},
{"station_cd":2200402,"station_g_cd":2200402,"station_name":"豊島園","station_name_k":"トシマエン","station_name_r":"toshimaenn","line_cd":22004,"pref_cd":13,"post":"176-0001","add":"練馬区練馬４-１６-５","lon":139.647979,"lat":35.742054,"open_ymd":"","close_ymd":"","e_sort":"2200402"},
{"station_cd":2200701,"station_g_cd":2200701,"station_name":"西武新宿","station_name_k":"セイブシンジュク","station_name_r":"seibushinnjuku","line_cd":22007,"pref_cd":13,"post":"160-0021","add":"新宿区歌舞伎町１-３０-１","lon":139.7,"lat":35.696254,"open_ymd":"","close_ymd":"","e_sort":"2200701"},
{"station_cd":2200702,"station_g_cd":1130210,"station_name":"高田馬場","station_name_k":"タカダノババ","station_name_r":"takadanobaba","line_cd":22007,"pref_cd":13,"post":"169-0075","add":"東京都新宿区高田馬場一丁目35-2","lon":139.703715,"lat":35.712677,"open_ymd":"","close_ymd":"","e_sort":"2200702"},
{"station_cd":2200703,"station_g_cd":2200703,"station_name":"下落合","station_name_k":"シモオチアイ","station_name_r":"shimoochiai","line_cd":22007,"pref_cd":13,"post":"161-0033","add":"新宿区下落合１-１６-１","lon":139.695391,"lat":35.715846,"open_ymd":"","close_ymd":"","e_sort":"2200703"},
{"station_cd":2200704,"station_g_cd":2200704,"station_name":"中井","station_name_k":"ナカイ","station_name_r":"nakai","line_cd":22007,"pref_cd":13,"post":"161-0032","add":"新宿区中落合１-１９-１","lon":139.686967,"lat":35.715106,"open_ymd":"","close_ymd":"","e_sort":"2200704"},
{"station_cd":2200705,"station_g_cd":2200705,"station_name":"新井薬師前","station_name_k":"アライヤクシマエ","station_name_r":"araiyakushimae","line_cd":22007,"pref_cd":13,"post":"164-0002","add":"中野区上高田５-４３-２０","lon":139.672582,"lat":35.715778,"open_ymd":"","close_ymd":"","e_sort":"2200705"},
{"station_cd":2200706,"station_g_cd":2200706,"station_name":"沼袋","station_name_k":"ヌマブクロ","station_name_r":"numabukuro","line_cd":22007,"pref_cd":13,"post":"165-0025","add":"中野区沼袋１-３５-１","lon":139.663841,"lat":35.719458,"open_ymd":"","close_ymd":"","e_sort":"2200706"},
{"station_cd":2200707,"station_g_cd":2200707,"station_name":"野方","station_name_k":"ノガタ","station_name_r":"nogata","line_cd":22007,"pref_cd":13,"post":"165-0027","add":"中野区野方６-３-３","lon":139.652733,"lat":35.719658,"open_ymd":"","close_ymd":"","e_sort":"2200707"},
{"station_cd":2200708,"station_g_cd":2200708,"station_name":"都立家政","station_name_k":"トリツカセイ","station_name_r":"toritsukasei","line_cd":22007,"pref_cd":13,"post":"165-0032","add":"中野区鷺宮１-１６-１","lon":139.644839,"lat":35.722313,"open_ymd":"","close_ymd":"","e_sort":"2200708"},
{"station_cd":2200709,"station_g_cd":2200709,"station_name":"鷺ノ宮","station_name_k":"サギノミヤ","station_name_r":"saginomiya","line_cd":22007,"pref_cd":13,"post":"165-0032","add":"中野区鷺宮３-１５-１","lon":139.63892,"lat":35.722605,"open_ymd":"","close_ymd":"","e_sort":"2200709"},
{"station_cd":2200710,"station_g_cd":2200710,"station_name":"下井草","station_name_k":"シモイグサ","station_name_r":"shimoigusa","line_cd":22007,"pref_cd":13,"post":"167-0022","add":"杉並区下井草２-４４-１０","lon":139.624688,"lat":35.723852,"open_ymd":"","close_ymd":"","e_sort":"2200710"},
{"station_cd":2200711,"station_g_cd":2200711,"station_name":"井荻","station_name_k":"イオギ","station_name_r":"iogi","line_cd":22007,"pref_cd":13,"post":"167-0022","add":"杉並区下井草５-２３-１５","lon":139.615303,"lat":35.72469,"open_ymd":"","close_ymd":"","e_sort":"2200711"},
{"station_cd":2200712,"station_g_cd":2200712,"station_name":"上井草","station_name_k":"カミイグサ","station_name_r":"kamiigusa","line_cd":22007,"pref_cd":13,"post":"167-0023","add":"杉並区上井草３-３２-１","lon":139.602937,"lat":35.725326,"open_ymd":"","close_ymd":"","e_sort":"2200712"},
{"station_cd":2200713,"station_g_cd":2200713,"station_name":"上石神井","station_name_k":"カミシャクジイ","station_name_r":"kamishakujii","line_cd":22007,"pref_cd":13,"post":"177-0044","add":"練馬区上石神井１-２-４５","lon":139.592266,"lat":35.726189,"open_ymd":"","close_ymd":"","e_sort":"2200713"},
{"station_cd":2200714,"station_g_cd":2200714,"station_name":"武蔵関","station_name_k":"ムサシセキ","station_name_r":"musashiseki","line_cd":22007,"pref_cd":13,"post":"177-0051","add":"練馬区関町北２-２９-１","lon":139.576417,"lat":35.7276,"open_ymd":"","close_ymd":"","e_sort":"2200714"},
{"station_cd":2200715,"station_g_cd":2200715,"station_name":"東伏見","station_name_k":"ヒガシフシミ","station_name_r":"higashifushimi","line_cd":22007,"pref_cd":13,"post":"202-0021","add":"西東京市東伏見２-５-１","lon":139.563529,"lat":35.728761,"open_ymd":"","close_ymd":"","e_sort":"2200715"},
{"station_cd":2200716,"station_g_cd":2200716,"station_name":"西武柳沢","station_name_k":"セイブヤギサワ","station_name_r":"seibuyagisawa","line_cd":22007,"pref_cd":13,"post":"202-0015","add":"西東京市保谷町３-１１-２４","lon":139.552477,"lat":35.728621,"open_ymd":"","close_ymd":"","e_sort":"2200716"},
{"station_cd":2200717,"station_g_cd":2200717,"station_name":"田無","station_name_k":"タナシ","station_name_r":"tanashi","line_cd":22007,"pref_cd":13,"post":"188-0011","add":"西東京市田無町４-１-１","lon":139.539259,"lat":35.727307,"open_ymd":"","close_ymd":"","e_sort":"2200717"},
{"station_cd":2200718,"station_g_cd":2200718,"station_name":"花小金井","station_name_k":"ハナコガネイ","station_name_r":"hanakoganei","line_cd":22007,"pref_cd":13,"post":"187-0002","add":"小平市花小金井１-１０-５","lon":139.513228,"lat":35.726129,"open_ymd":"","close_ymd":"","e_sort":"2200718"},
{"station_cd":2201201,"station_g_cd":1131221,"station_name":"武蔵境","station_name_k":"ムサシサカイ","station_name_r":"musashisakai","line_cd":22012,"pref_cd":13,"post":"180-0022","add":"武蔵野市境１丁目","lon":139.543402,"lat":35.702083,"open_ymd":"","close_ymd":"","e_sort":"2201201"},
{"station_cd":2201202,"station_g_cd":2201202,"station_name":"新小金井","station_name_k":"シンコガネイ","station_name_r":"shinnkoganei","line_cd":22012,"pref_cd":13,"post":"184-0011","add":"小金井市東町４-２４-１","lon":139.526603,"lat":35.695908,"open_ymd":"","close_ymd":"","e_sort":"2201202"},
{"station_cd":2201203,"station_g_cd":2201203,"station_name":"多磨","station_name_k":"タマ","station_name_r":"tama","line_cd":22012,"pref_cd":13,"post":"183-0004","add":"府中市紅葉丘３-４２-２","lon":139.51713,"lat":35.676821,"open_ymd":"","close_ymd":"","e_sort":"2201203"},
{"station_cd":2201204,"station_g_cd":2201204,"station_name":"白糸台","station_name_k":"シライトダイ","station_name_r":"shiraitodai","line_cd":22012,"pref_cd":13,"post":"183-0011","add":"府中市白糸台２-７１-６","lon":139.509862,"lat":35.666517,"open_ymd":"","close_ymd":"","e_sort":"2201204"},
{"station_cd":2300101,"station_g_cd":2300101,"station_name":"京成上野","station_name_k":"ケイセイウエノ","station_name_r":"keisei-ueno","line_cd":23001,"pref_cd":13,"post":"","add":"東京都台東区上野公園1-60","lon":139.773571,"lat":35.711232,"open_ymd":"","close_ymd":"","e_sort":"2300101"},
{"station_cd":2300102,"station_g_cd":1130218,"station_name":"日暮里","station_name_k":"ニッポリ","station_name_r":"nippori","line_cd":23001,"pref_cd":13,"post":"","add":"東京都荒川区西日暮里二丁目","lon":139.771287,"lat":35.727908,"open_ymd":"","close_ymd":"","e_sort":"2300102"},
{"station_cd":2300103,"station_g_cd":2300103,"station_name":"新三河島","station_name_k":"シンミカワシマ","station_name_r":"shinnmikawashima","line_cd":23001,"pref_cd":13,"post":"116-0013","add":"荒川区西日暮里６-２-１","lon":139.773834,"lat":35.73714,"open_ymd":"","close_ymd":"","e_sort":"2300103"},
{"station_cd":2300104,"station_g_cd":2300104,"station_name":"町屋","station_name_k":"マチヤ","station_name_r":"machiya","line_cd":23001,"pref_cd":13,"post":"116-0001","add":"荒川区町屋１丁目","lon":139.781499,"lat":35.742354,"open_ymd":"","close_ymd":"","e_sort":"2300104"},
{"station_cd":2300105,"station_g_cd":2300105,"station_name":"千住大橋","station_name_k":"センジュオオハシ","station_name_r":"sennjuoohashi","line_cd":23001,"pref_cd":13,"post":"120-0038","add":"足立区千住橋戸町１１-１","lon":139.796934,"lat":35.74243,"open_ymd":"","close_ymd":"","e_sort":"2300105"},
{"station_cd":2300106,"station_g_cd":2100208,"station_name":"京成関屋","station_name_k":"ケイセイセキヤ","station_name_r":"keiseisekiya","line_cd":23001,"pref_cd":13,"post":"120-0023","add":"足立区千住曙町２-２","lon":139.81183,"lat":35.744008,"open_ymd":"","close_ymd":"","e_sort":"2300106"},
{"station_cd":2300107,"station_g_cd":2300107,"station_name":"堀切菖蒲園","station_name_k":"ホリキリショウブエン","station_name_r":"horikirishoubuenn","line_cd":23001,"pref_cd":13,"post":"124-0006","add":"葛飾区堀切５-１-１","lon":139.827545,"lat":35.747649,"open_ymd":"","close_ymd":"","e_sort":"2300107"},
{"station_cd":2300108,"station_g_cd":2300108,"station_name":"お花茶屋","station_name_k":"オハナヂャヤ","station_name_r":"ohanadyaya","line_cd":23001,"pref_cd":13,"post":"124-0005","add":"葛飾区宝町２-３７-１","lon":139.83988,"lat":35.747585,"open_ymd":"","close_ymd":"","e_sort":"2300108"},
{"station_cd":2300109,"station_g_cd":2300109,"station_name":"青砥","station_name_k":"アオト","station_name_r":"aoto","line_cd":23001,"pref_cd":13,"post":"","add":"東京都葛飾区青戸三丁目36番1号","lon":139.856292,"lat":35.745883,"open_ymd":"","close_ymd":"","e_sort":"2300109"},
{"station_cd":2300110,"station_g_cd":2300110,"station_name":"京成高砂","station_name_k":"ケイセイタカサゴ","station_name_r":"keisei-takasago","line_cd":23001,"pref_cd":13,"post":"","add":"東京都葛飾区高砂五丁目28-1","lon":139.866875,"lat":35.750932,"open_ymd":"","close_ymd":"","e_sort":"2300110"},
{"station_cd":2300111,"station_g_cd":2300111,"station_name":"京成小岩","station_name_k":"ケイセイコイワ","station_name_r":"keiseikoiwa","line_cd":23001,"pref_cd":13,"post":"133-0051","add":"江戸川区北小岩２-１０-９","lon":139.88371,"lat":35.742158,"open_ymd":"","close_ymd":"","e_sort":"2300111"},
{"station_cd":2300112,"station_g_cd":2300112,"station_name":"江戸川","station_name_k":"エドガワ","station_name_r":"edogawa","line_cd":23001,"pref_cd":13,"post":"133-0051","add":"江戸川区北小岩３-２４-１５","lon":139.896226,"lat":35.737723,"open_ymd":"","close_ymd":"","e_sort":"2300112"},
{"station_cd":2300113,"station_g_cd":2300113,"station_name":"国府台","station_name_k":"コウノダイ","station_name_r":"kounodai","line_cd":23001,"pref_cd":12,"post":"272-0034","add":"市川市市川３-３０-１","lon":139.90322,"lat":35.736301,"open_ymd":"","close_ymd":"","e_sort":"2300113"},
{"station_cd":2300114,"station_g_cd":2300114,"station_name":"市川真間","station_name_k":"イチカワママ","station_name_r":"ichikawamama","line_cd":23001,"pref_cd":12,"post":"272-0826","add":"市川市真間１-１１-１","lon":139.911717,"lat":35.73121,"open_ymd":"","close_ymd":"","e_sort":"2300114"},
{"station_cd":2300115,"station_g_cd":2300115,"station_name":"菅野","station_name_k":"スガノ","station_name_r":"sugano","line_cd":23001,"pref_cd":12,"post":"272-0824","add":"市川市菅野２-７-１","lon":139.919413,"lat":35.728272,"open_ymd":"","close_ymd":"","e_sort":"2300115"},
{"station_cd":2300116,"station_g_cd":1131328,"station_name":"京成八幡","station_name_k":"ケイセイヤワタ","station_name_r":"keiseiyawata","line_cd":23001,"pref_cd":12,"post":"272-0021","add":"市川市八幡３-２-１","lon":139.92816,"lat":35.723811,"open_ymd":"","close_ymd":"","e_sort":"2300116"},
{"station_cd":2300117,"station_g_cd":2300117,"station_name":"鬼越","station_name_k":"オニゴエ","station_name_r":"onigoe","line_cd":23001,"pref_cd":12,"post":"272-0022","add":"市川市鬼越１-４-５","lon":139.937932,"lat":35.719776,"open_ymd":"","close_ymd":"","e_sort":"2300117"},
{"station_cd":2300118,"station_g_cd":2300118,"station_name":"京成中山","station_name_k":"ケイセイナカヤマ","station_name_r":"keiseinakayama","line_cd":23001,"pref_cd":12,"post":"273-0035","add":"船橋市本中山１-９-１","lon":139.944203,"lat":35.716998,"open_ymd":"","close_ymd":"","e_sort":"2300118"},
{"station_cd":2300119,"station_g_cd":2300119,"station_name":"東中山","station_name_k":"ヒガシナカヤマ","station_name_r":"higashinakayama","line_cd":23001,"pref_cd":12,"post":"273-0036","add":"船橋市東中山２-２-２２","lon":139.952683,"lat":35.714385,"open_ymd":"","close_ymd":"","e_sort":"2300119"},
{"station_cd":2300120,"station_g_cd":2300120,"station_name":"京成西船","station_name_k":"ケイセイニシフナ","station_name_r":"keiseinishifuna","line_cd":23001,"pref_cd":12,"post":"273-0031","add":"船橋市西船４-１５-２７","lon":139.958863,"lat":35.711627,"open_ymd":"","close_ymd":"","e_sort":"2300120"},
{"station_cd":2300121,"station_g_cd":2300121,"station_name":"海神","station_name_k":"カイジン","station_name_r":"kaijinn","line_cd":23001,"pref_cd":12,"post":"273-0021","add":"船橋市海神５-１-２２","lon":139.971888,"lat":35.705888,"open_ymd":"","close_ymd":"","e_sort":"2300121"},
{"station_cd":2300122,"station_g_cd":1131331,"station_name":"京成船橋","station_name_k":"ケイセイフナバシ","station_name_r":"keiseifunabashi","line_cd":23001,"pref_cd":12,"post":"273-0005","add":"船橋市本町１-５-１","lon":139.985451,"lat":35.700161,"open_ymd":"","close_ymd":"","e_sort":"2300122"},
{"station_cd":2300123,"station_g_cd":2300123,"station_name":"大神宮下","station_name_k":"ダイジングウシタ","station_name_r":"daijinnguushita","line_cd":23001,"pref_cd":12,"post":"273-0003","add":"船橋市宮本２-９-９","lon":139.991431,"lat":35.693945,"open_ymd":"","close_ymd":"","e_sort":"2300123"},
{"station_cd":2300124,"station_g_cd":2300124,"station_name":"船橋競馬場","station_name_k":"フナバシケイバジョウ","station_name_r":"funabashikeibajou","line_cd":23001,"pref_cd":12,"post":"273-0003","add":"船橋市宮本８-４２-１","lon":139.997998,"lat":35.689606,"open_ymd":"","close_ymd":"","e_sort":"2300124"},
{"station_cd":2300125,"station_g_cd":2300125,"station_name":"谷津","station_name_k":"ヤツ","station_name_r":"yatsu","line_cd":23001,"pref_cd":12,"post":"275-0026","add":"習志野市谷津５-４-５","lon":140.007658,"lat":35.685257,"open_ymd":"","close_ymd":"","e_sort":"2300125"},
{"station_cd":2300126,"station_g_cd":2300126,"station_name":"京成津田沼","station_name_k":"ケイセイツダヌマ","station_name_r":"keiseitsudanuma","line_cd":23001,"pref_cd":12,"post":"275-0016","add":"習志野市津田沼３-１-１","lon":140.024823,"lat":35.68364,"open_ymd":"","close_ymd":"","e_sort":"2300126"},
{"station_cd":2300127,"station_g_cd":2300127,"station_name":"京成大久保","station_name_k":"ケイセイオオクボ","station_name_r":"keiseiookubo","line_cd":23001,"pref_cd":12,"post":"275-0012","add":"習志野市本大久保３-１０-１","lon":140.048629,"lat":35.686016,"open_ymd":"","close_ymd":"","e_sort":"2300127"},
{"station_cd":2300128,"station_g_cd":2300128,"station_name":"実籾","station_name_k":"ミモミ","station_name_r":"mimomi","line_cd":23001,"pref_cd":12,"post":"275-0002","add":"習志野市実籾町１-１-１","lon":140.068289,"lat":35.686852,"open_ymd":"","close_ymd":"","e_sort":"2300128"},
{"station_cd":2300129,"station_g_cd":2300129,"station_name":"八千代台","station_name_k":"ヤチヨダイ","station_name_r":"yachiyodai","line_cd":23001,"pref_cd":12,"post":"276-0031","add":"八千代市八千代台北１","lon":140.090942,"lat":35.701465,"open_ymd":"","close_ymd":"","e_sort":"2300129"},
{"station_cd":2300130,"station_g_cd":2300130,"station_name":"京成大和田","station_name_k":"ケイセイオオワダ","station_name_r":"keiseioowada","line_cd":23001,"pref_cd":12,"post":"276-0045","add":"八千代市大和田字小板橋３０８","lon":140.108578,"lat":35.712309,"open_ymd":"","close_ymd":"","e_sort":"2300130"},
{"station_cd":2300131,"station_g_cd":2300131,"station_name":"勝田台","station_name_k":"カツタダイ","station_name_r":"katsutadai","line_cd":23001,"pref_cd":12,"post":"276-0023","add":"八千代市勝田台１-８-１","lon":140.126053,"lat":35.715445,"open_ymd":"","close_ymd":"","e_sort":"2300131"},
{"station_cd":2300132,"station_g_cd":2300132,"station_name":"志津","station_name_k":"シヅ","station_name_r":"shidu","line_cd":23001,"pref_cd":12,"post":"285-0846","add":"佐倉市上志津１６６９","lon":140.144982,"lat":35.717406,"open_ymd":"","close_ymd":"","e_sort":"2300132"},
{"station_cd":2300133,"station_g_cd":2300133,"station_name":"ユーカリが丘","station_name_k":"ユーカリガオカ","station_name_r":"yu-karigaoka","line_cd":23001,"pref_cd":12,"post":"285-0858","add":"佐倉市ユーカリが丘４-８-２","lon":140.156354,"lat":35.721801,"open_ymd":"","close_ymd":"","e_sort":"2300133"},
{"station_cd":2300134,"station_g_cd":2300134,"station_name":"京成臼井","station_name_k":"ケイセイウスイ","station_name_r":"keiseiusui","line_cd":23001,"pref_cd":12,"post":"285-0837","add":"佐倉市王子台３-３０-３","lon":140.180796,"lat":35.730017,"open_ymd":"","close_ymd":"","e_sort":"2300134"},
{"station_cd":2300201,"station_g_cd":2100203,"station_name":"押上（スカイツリー前）","station_name_k":"オシアゲ　スカイツリーマエ","station_name_r":"oshiage skytree","line_cd":23002,"pref_cd":13,"post":"131-0045","add":"墨田区押上一丁目","lon":139.812935,"lat":35.710702,"open_ymd":"","close_ymd":"","e_sort":"2300201"},
{"station_cd":2300202,"station_g_cd":2300202,"station_name":"京成曳舟","station_name_k":"ケイセイヒキフネ","station_name_r":"keiseihikifune","line_cd":23002,"pref_cd":13,"post":"131-0046","add":"墨田区京島１-３９-１","lon":139.820012,"lat":35.718441,"open_ymd":"","close_ymd":"","e_sort":"2300202"},
{"station_cd":2300203,"station_g_cd":2300203,"station_name":"八広","station_name_k":"ヤヒロ","station_name_r":"yahiro","line_cd":23002,"pref_cd":13,"post":"131-0041","add":"墨田区八広６-２５-２０","lon":139.828738,"lat":35.727687,"open_ymd":"","close_ymd":"","e_sort":"2300203"},
{"station_cd":2300204,"station_g_cd":2300204,"station_name":"四ツ木","station_name_k":"ヨツギ","station_name_r":"yotsugi","line_cd":23002,"pref_cd":13,"post":"124-0011","add":"葛飾区四つ木１-１-１","lon":139.834918,"lat":35.731962,"open_ymd":"","close_ymd":"","e_sort":"2300204"},
{"station_cd":2300205,"station_g_cd":2300205,"station_name":"京成立石","station_name_k":"ケイセイタテイシ","station_name_r":"keiseitateishi","line_cd":23002,"pref_cd":13,"post":"124-0012","add":"葛飾区立石４-２４-１","lon":139.848558,"lat":35.738281,"open_ymd":"","close_ymd":"","e_sort":"2300205"},
{"station_cd":2300206,"station_g_cd":2300109,"station_name":"青砥","station_name_k":"アオト","station_name_r":"aoto","line_cd":23002,"pref_cd":13,"post":"","add":"東京都葛飾区青戸三丁目36番1号","lon":139.856292,"lat":35.745883,"open_ymd":"","close_ymd":"","e_sort":"2300206"},
{"station_cd":2300207,"station_g_cd":2300110,"station_name":"京成高砂","station_name_k":"ケイセイタカサゴ","station_name_r":"keisei-takasago","line_cd":23002,"pref_cd":13,"post":"","add":"東京都葛飾区高砂五丁目28-1","lon":139.866875,"lat":35.750932,"open_ymd":"","close_ymd":"","e_sort":"2300207"},
{"station_cd":2300301,"station_g_cd":2300110,"station_name":"京成高砂","station_name_k":"ケイセイタカサゴ","station_name_r":"keisei-takasago","line_cd":23003,"pref_cd":13,"post":"","add":"東京都葛飾区高砂五丁目28-1","lon":139.866875,"lat":35.750932,"open_ymd":"","close_ymd":"","e_sort":"2300301"},
{"station_cd":2300302,"station_g_cd":2300302,"station_name":"柴又","station_name_k":"シバマタ","station_name_r":"shibamata","line_cd":23003,"pref_cd":13,"post":"125-0052","add":"葛飾区柴又４-８-１４","lon":139.875188,"lat":35.756323,"open_ymd":"","close_ymd":"","e_sort":"2300302"},
{"station_cd":2300303,"station_g_cd":1132008,"station_name":"京成金町","station_name_k":"ケイセイカナマチ","station_name_r":"keiseikanamachi","line_cd":23003,"pref_cd":13,"post":"125-0042","add":"葛飾区金町５-３７-９","lon":139.870387,"lat":35.768471,"open_ymd":"","close_ymd":"","e_sort":"2300303"},
{"station_cd":2300401,"station_g_cd":2300126,"station_name":"京成津田沼","station_name_k":"ケイセイツダヌマ","station_name_r":"keiseitsudanuma","line_cd":23004,"pref_cd":12,"post":"275-0016","add":"習志野市津田沼３-１-１","lon":140.024823,"lat":35.68364,"open_ymd":"","close_ymd":"","e_sort":"2300401"},
{"station_cd":2300402,"station_g_cd":1131334,"station_name":"京成幕張本郷","station_name_k":"ケイセイマクハリホンゴウ","station_name_r":"keiseimakuharihonngou","line_cd":23004,"pref_cd":12,"post":"262-0033","add":"千葉市花見川区幕張本郷１-１-３","lon":140.042091,"lat":35.672551,"open_ymd":"1991-08-07","close_ymd":"","e_sort":"2300402"},
{"station_cd":2300403,"station_g_cd":1131335,"station_name":"京成幕張","station_name_k":"ケイセイマクハリ","station_name_r":"keiseimakuhari","line_cd":23004,"pref_cd":12,"post":"262-0032","add":"千葉市花見川区幕張町４-６０１","lon":140.05591,"lat":35.66078,"open_ymd":"","close_ymd":"","e_sort":"2300403"},
{"station_cd":2300404,"station_g_cd":2300404,"station_name":"検見川","station_name_k":"ケミガワ","station_name_r":"kemigawa","line_cd":23004,"pref_cd":12,"post":"262-0023","add":"千葉市花見川区検見川町１-７９１","lon":140.066656,"lat":35.652512,"open_ymd":"","close_ymd":"","e_sort":"2300404"},
{"station_cd":2300405,"station_g_cd":2300405,"station_name":"京成稲毛","station_name_k":"ケイセイイナゲ","station_name_r":"keiseiinage","line_cd":23004,"pref_cd":12,"post":"263-0034","add":"千葉市稲毛区稲毛３-１-１７","lon":140.085505,"lat":35.637783,"open_ymd":"","close_ymd":"","e_sort":"2300405"},
{"station_cd":2300406,"station_g_cd":2300406,"station_name":"みどり台","station_name_k":"ミドリダイ","station_name_r":"midoridai","line_cd":23004,"pref_cd":12,"post":"263-0023","add":"千葉市稲毛区緑町１-７-１","lon":140.097413,"lat":35.624994,"open_ymd":"","close_ymd":"","e_sort":"2300406"},
{"station_cd":2300407,"station_g_cd":2300407,"station_name":"西登戸","station_name_k":"ニシノブト","station_name_r":"nishinobuto","line_cd":23004,"pref_cd":12,"post":"260-0032","add":"千葉市中央区登戸町４-９-１","lon":140.102801,"lat":35.617615,"open_ymd":"","close_ymd":"","e_sort":"2300407"},
{"station_cd":2300408,"station_g_cd":2300408,"station_name":"新千葉","station_name_k":"シンチバ","station_name_r":"shinnchiba","line_cd":23004,"pref_cd":12,"post":"260-0032","add":"千葉市中央区登戸町２-１０-１５","lon":140.108557,"lat":35.612455,"open_ymd":"","close_ymd":"","e_sort":"2300408"},
{"station_cd":2300409,"station_g_cd":1131339,"station_name":"京成千葉","station_name_k":"ケイセイチバ","station_name_r":"keiseichiba","line_cd":23004,"pref_cd":12,"post":"260-0028","add":"千葉市中央区新町２５０-３","lon":140.114273,"lat":35.6116,"open_ymd":"","close_ymd":"","e_sort":"2300409"},
{"station_cd":2300410,"station_g_cd":2300410,"station_name":"千葉中央","station_name_k":"チバチュウオウ","station_name_r":"chibachuuou","line_cd":23004,"pref_cd":12,"post":"260-0014","add":"千葉市中央区本千葉町１５-１","lon":140.117809,"lat":35.607354,"open_ymd":"","close_ymd":"","e_sort":"2300410"},
{"station_cd":2300501,"station_g_cd":2300410,"station_name":"千葉中央","station_name_k":"チバチュウオウ","station_name_r":"chibachuuou","line_cd":23005,"pref_cd":12,"post":"260-0014","add":"千葉市中央区本千葉町１５-１","lon":140.117809,"lat":35.607354,"open_ymd":"","close_ymd":"","e_sort":"2300501"},
{"station_cd":2300502,"station_g_cd":2300502,"station_name":"千葉寺","station_name_k":"チバデラ","station_name_r":"chibadera","line_cd":23005,"pref_cd":12,"post":"260-0844","add":"千葉市中央区千葉寺町９１２-１","lon":140.132236,"lat":35.590311,"open_ymd":"","close_ymd":"","e_sort":"2300502"},
{"station_cd":2300503,"station_g_cd":2300503,"station_name":"大森台","station_name_k":"オオモリダイ","station_name_r":"oomoridai","line_cd":23005,"pref_cd":12,"post":"260-0811","add":"千葉市中央区大森町４６３-３","lon":140.149398,"lat":35.584126,"open_ymd":"","close_ymd":"","e_sort":"2300503"},
{"station_cd":2300504,"station_g_cd":2300504,"station_name":"学園前","station_name_k":"ガクエンマエ","station_name_r":"gakuennmae","line_cd":23005,"pref_cd":12,"post":"266-0032","add":"千葉市緑区おゆみ野中央１-１４-２","lon":140.158416,"lat":35.560364,"open_ymd":"","close_ymd":"","e_sort":"2300504"},
{"station_cd":2300505,"station_g_cd":2300505,"station_name":"おゆみ野","station_name_k":"オユミノ","station_name_r":"oyumino","line_cd":23005,"pref_cd":12,"post":"266-0033","add":"千葉市緑区おゆみ野南３-２７-１","lon":140.166264,"lat":35.550029,"open_ymd":"","close_ymd":"","e_sort":"2300505"},
{"station_cd":2300506,"station_g_cd":2300506,"station_name":"ちはら台","station_name_k":"チハラダイ","station_name_r":"chiharadai","line_cd":23005,"pref_cd":12,"post":"290-0000","add":"市原市ちはら台７-８７","lon":140.17029,"lat":35.534017,"open_ymd":"","close_ymd":"","e_sort":"2300506"},
{"station_cd":2300601,"station_g_cd":2300101,"station_name":"京成上野","station_name_k":"ケイセイウエノ","station_name_r":"keiseiueno","line_cd":23006,"pref_cd":13,"post":"-","add":"東京都台東区上野公園1-60","lon":139.773571,"lat":35.711232,"open_ymd":"1933-12-10","close_ymd":"","e_sort":"2300601"},
{"station_cd":2300602,"station_g_cd":1130218,"station_name":"日暮里","station_name_k":"ニッポリ","station_name_r":"nippori","line_cd":23006,"pref_cd":13,"post":"-","add":"東京都荒川区西日暮里二丁目19-1","lon":139.771287,"lat":35.727908,"open_ymd":"1931-12-19","close_ymd":"","e_sort":"2300602"},
{"station_cd":2300603,"station_g_cd":2300109,"station_name":"青砥","station_name_k":"アオト","station_name_r":"aoto","line_cd":23006,"pref_cd":13,"post":"-","add":"東京都葛飾区青戸三丁目36番1号","lon":139.856292,"lat":35.745883,"open_ymd":"1928-11-01","close_ymd":"","e_sort":"2300603"},
{"station_cd":2300604,"station_g_cd":2300110,"station_name":"京成高砂","station_name_k":"ケイセイタカサゴ","station_name_r":"keiseitakasago","line_cd":23006,"pref_cd":13,"post":"-","add":"東京都葛飾区高砂五丁目28-1","lon":139.866875,"lat":35.750932,"open_ymd":"","close_ymd":"","e_sort":"2300604"},
{"station_cd":2300605,"station_g_cd":1130521,"station_name":"東松戸","station_name_k":"ヒガシマツド","station_name_r":"higashimatsudo","line_cd":23006,"pref_cd":12,"post":"-","add":"千葉県松戸市紙敷447","lon":139.942957,"lat":35.769954,"open_ymd":"1991-03-31","close_ymd":"","e_sort":"2300605"},
{"station_cd":2300606,"station_g_cd":2100430,"station_name":"新鎌ヶ谷","station_name_k":"シンカマガヤ","station_name_r":"shinkamagaya","line_cd":23006,"pref_cd":12,"post":"-","add":"千葉県鎌ケ谷市新鎌ケ谷一丁目13-1","lon":139.998361,"lat":35.779481,"open_ymd":"1991-03-31","close_ymd":"","e_sort":"2300606"},
{"station_cd":2400101,"station_g_cd":1130208,"station_name":"新宿","station_name_k":"シンジュク","station_name_r":"shinjuku","line_cd":24001,"pref_cd":13,"post":"","add":"東京都新宿区西新宿一丁目1-4","lon":139.699187,"lat":35.690163,"open_ymd":"","close_ymd":"","e_sort":"2400101"},
{"station_cd":2400102,"station_g_cd":2400102,"station_name":"初台","station_name_k":"ハツダイ","station_name_r":"hatsudai","line_cd":24001,"pref_cd":13,"post":"151-0061","add":"渋谷区初台１-５３-７","lon":139.686354,"lat":35.68123,"open_ymd":"","close_ymd":"","e_sort":"2400102"},
{"station_cd":2400103,"station_g_cd":2400103,"station_name":"幡ヶ谷","station_name_k":"ハタガヤ","station_name_r":"hatagaya","line_cd":24001,"pref_cd":13,"post":"","add":"東京都渋谷区幡ヶ谷一丁目","lon":139.676183,"lat":35.677061,"open_ymd":"","close_ymd":"","e_sort":"2400103"},
{"station_cd":2400104,"station_g_cd":2400104,"station_name":"笹塚","station_name_k":"ササヅカ","station_name_r":"sasaduka","line_cd":24001,"pref_cd":13,"post":"151-0073","add":"渋谷区笹塚１-５６-７","lon":139.667251,"lat":35.673758,"open_ymd":"","close_ymd":"","e_sort":"2400104"},
{"station_cd":2400105,"station_g_cd":2400105,"station_name":"代田橋","station_name_k":"ダイタバシ","station_name_r":"daitabashi","line_cd":24001,"pref_cd":13,"post":"156-0041","add":"世田谷区大原２-１８-９","lon":139.659413,"lat":35.671092,"open_ymd":"","close_ymd":"","e_sort":"2400105"},
{"station_cd":2400106,"station_g_cd":2400106,"station_name":"明大前","station_name_k":"メイダイマエ","station_name_r":"meidaimae","line_cd":24001,"pref_cd":13,"post":"156-0043","add":"世田谷区松原２-４５-１","lon":139.650352,"lat":35.668758,"open_ymd":"","close_ymd":"","e_sort":"2400106"},
{"station_cd":2400107,"station_g_cd":2400107,"station_name":"下高井戸","station_name_k":"シモタカイド","station_name_r":"shimotakaido","line_cd":24001,"pref_cd":13,"post":"156-0043","add":"世田谷区松原３-２９-１７","lon":139.641372,"lat":35.66615,"open_ymd":"","close_ymd":"","e_sort":"2400107"},
{"station_cd":2400108,"station_g_cd":2400108,"station_name":"桜上水","station_name_k":"サクラジョウスイ","station_name_r":"sakurajousui","line_cd":24001,"pref_cd":13,"post":"156-0045","add":"世田谷区桜上水５-２９-５２","lon":139.63129,"lat":35.66768,"open_ymd":"","close_ymd":"","e_sort":"2400108"},
{"station_cd":2400109,"station_g_cd":2400109,"station_name":"上北沢","station_name_k":"カミキタザワ","station_name_r":"kamikitazawa","line_cd":24001,"pref_cd":13,"post":"156-0057","add":"世田谷区上北沢４-１４-３","lon":139.62329,"lat":35.668857,"open_ymd":"","close_ymd":"","e_sort":"2400109"},
{"station_cd":2400110,"station_g_cd":2400110,"station_name":"八幡山","station_name_k":"ハチマンヤマ","station_name_r":"hachimannyama","line_cd":24001,"pref_cd":13,"post":"168-0074","add":"杉並区上高井戸１-１-１１","lon":139.614927,"lat":35.669982,"open_ymd":"","close_ymd":"","e_sort":"2400110"},
{"station_cd":2400111,"station_g_cd":2400111,"station_name":"芦花公園","station_name_k":"ロカコウエン","station_name_r":"rokakouenn","line_cd":24001,"pref_cd":13,"post":"157-0062","add":"世田谷区南烏山３-１-１６","lon":139.608247,"lat":35.670479,"open_ymd":"","close_ymd":"","e_sort":"2400111"},
{"station_cd":2400112,"station_g_cd":2400112,"station_name":"千歳烏山","station_name_k":"チトセカラスヤマ","station_name_r":"chitosekarasuyama","line_cd":24001,"pref_cd":13,"post":"157-0062","add":"世田谷区南烏山６-１-１","lon":139.60067,"lat":35.667921,"open_ymd":"","close_ymd":"","e_sort":"2400112"},
{"station_cd":2400113,"station_g_cd":2400113,"station_name":"仙川","station_name_k":"センガワ","station_name_r":"senngawa","line_cd":24001,"pref_cd":13,"post":"182-0002","add":"調布市仙川町１-４３","lon":139.584908,"lat":35.662257,"open_ymd":"","close_ymd":"","e_sort":"2400113"},
{"station_cd":2400114,"station_g_cd":2400114,"station_name":"つつじヶ丘","station_name_k":"ツツジガオカ","station_name_r":"tsutsujigaoka","line_cd":24001,"pref_cd":13,"post":"","add":"東京都調布市西つつじヶ丘三丁目35-1","lon":139.575103,"lat":35.657936,"open_ymd":"","close_ymd":"","e_sort":"2400114"},
{"station_cd":2400115,"station_g_cd":2400115,"station_name":"柴崎","station_name_k":"シバサキ","station_name_r":"shibasaki","line_cd":24001,"pref_cd":13,"post":"182-0007","add":"調布市菊野台２-６７-１１","lon":139.56658,"lat":35.653997,"open_ymd":"","close_ymd":"","e_sort":"2400115"},
{"station_cd":2400116,"station_g_cd":2400116,"station_name":"国領","station_name_k":"コクリョウ","station_name_r":"kokuryou","line_cd":24001,"pref_cd":13,"post":"182-0022","add":"調布市国領町３-１８-１","lon":139.558036,"lat":35.650087,"open_ymd":"","close_ymd":"","e_sort":"2400116"},
{"station_cd":2400117,"station_g_cd":2400117,"station_name":"布田","station_name_k":"フダ","station_name_r":"fuda","line_cd":24001,"pref_cd":13,"post":"182-0022","add":"調布市国領町５-６７-１","lon":139.551557,"lat":35.649904,"open_ymd":"","close_ymd":"","e_sort":"2400117"},
{"station_cd":2400118,"station_g_cd":2400118,"station_name":"調布","station_name_k":"チョウフ","station_name_r":"choufu","line_cd":24001,"pref_cd":13,"post":"182-0024","add":"調布市布田４-３２-１","lon":139.543988,"lat":35.652181,"open_ymd":"","close_ymd":"","e_sort":"2400118"},
{"station_cd":2400119,"station_g_cd":2400119,"station_name":"西調布","station_name_k":"ニシチョウフ","station_name_r":"nishichoufu","line_cd":24001,"pref_cd":13,"post":"182-0035","add":"調布市上石原１-２５-１７","lon":139.529822,"lat":35.657169,"open_ymd":"","close_ymd":"","e_sort":"2400119"},
{"station_cd":2400120,"station_g_cd":2400120,"station_name":"飛田給","station_name_k":"トビタキュウ","station_name_r":"tobitakyuu","line_cd":24001,"pref_cd":13,"post":"182-0036","add":"調布市飛田給１-４２-１１","lon":139.523666,"lat":35.660121,"open_ymd":"","close_ymd":"","e_sort":"2400120"},
{"station_cd":2400121,"station_g_cd":2400121,"station_name":"武蔵野台","station_name_k":"ムサシノダイ","station_name_r":"musashinodai","line_cd":24001,"pref_cd":13,"post":"183-0011","add":"府中市白糸台４-１８-４","lon":139.511289,"lat":35.664159,"open_ymd":"","close_ymd":"","e_sort":"2400121"},
{"station_cd":2400122,"station_g_cd":2400122,"station_name":"多磨霊園","station_name_k":"タマレイエン","station_name_r":"tamareienn","line_cd":24001,"pref_cd":13,"post":"183-0015","add":"府中市清水が丘３-２６-１１","lon":139.502615,"lat":35.666197,"open_ymd":"","close_ymd":"","e_sort":"2400122"},
{"station_cd":2400201,"station_g_cd":2400118,"station_name":"調布","station_name_k":"チョウフ","station_name_r":"choufu","line_cd":24002,"pref_cd":13,"post":"182-0024","add":"調布市布田４-３２-１","lon":139.543988,"lat":35.652181,"open_ymd":"","close_ymd":"","e_sort":"2400201"},
{"station_cd":2400202,"station_g_cd":2400202,"station_name":"京王多摩川","station_name_k":"ケイオウタマガワ","station_name_r":"keioutamagawa","line_cd":24002,"pref_cd":13,"post":"182-0025","add":"調布市多摩川４-４０-１","lon":139.536606,"lat":35.644499,"open_ymd":"","close_ymd":"","e_sort":"2400202"},
{"station_cd":2400203,"station_g_cd":2400203,"station_name":"京王稲田堤","station_name_k":"ケイオウイナダヅツミ","station_name_r":"keiouinadadutsumi","line_cd":24002,"pref_cd":14,"post":"214-0001","add":"川崎市多摩区菅４-１-１","lon":139.531099,"lat":35.633895,"open_ymd":"","close_ymd":"","e_sort":"2400203"},
{"station_cd":2400204,"station_g_cd":2400204,"station_name":"京王よみうりランド","station_name_k":"ケイオウヨミウリランド","station_name_r":"keio-yomiuri-land","line_cd":24002,"pref_cd":13,"post":"","add":"東京都稲城市矢野口","lon":139.517597,"lat":35.632934,"open_ymd":"","close_ymd":"","e_sort":"2400204"},
{"station_cd":2400205,"station_g_cd":2400205,"station_name":"稲城","station_name_k":"イナギ","station_name_r":"inagi","line_cd":24002,"pref_cd":13,"post":"206-0802","add":"稲城市東長沼３１０８","lon":139.500398,"lat":35.636166,"open_ymd":"","close_ymd":"","e_sort":"2400205"},
{"station_cd":2400601,"station_g_cd":1130205,"station_name":"渋谷","station_name_k":"シブヤ","station_name_r":"shibuya","line_cd":24006,"pref_cd":13,"post":"-","add":"東京都渋谷区道玄坂一丁目4-1","lon":139.700872,"lat":35.6587,"open_ymd":"","close_ymd":"","e_sort":"2400601"},
{"station_cd":2400701,"station_g_cd":1130208,"station_name":"新線新宿","station_name_k":"シンセンシンジュク","station_name_r":"Shinsen-Shinjuku","line_cd":24007,"pref_cd":13,"post":"-","add":"東京都新宿区西新宿一丁目18","lon":139.698812,"lat":35.68869,"open_ymd":"","close_ymd":"","e_sort":"2400601"},
{"station_cd":2400602,"station_g_cd":2400602,"station_name":"神泉","station_name_k":"シンセン","station_name_r":"shinnsenn","line_cd":24006,"pref_cd":13,"post":"150-0045","add":"渋谷区神泉町４-６","lon":139.693579,"lat":35.657244,"open_ymd":"","close_ymd":"","e_sort":"2400602"},
{"station_cd":2400603,"station_g_cd":2400603,"station_name":"駒場東大前","station_name_k":"コマバトウダイマエ","station_name_r":"komabatoudaimae","line_cd":24006,"pref_cd":13,"post":"153-0041","add":"目黒区駒場３-９-１","lon":139.684308,"lat":35.65868,"open_ymd":"","close_ymd":"","e_sort":"2400603"},
{"station_cd":2400604,"station_g_cd":2400104,"station_name":"池ノ上","station_name_k":"イケノウエ","station_name_r":"ikenoue","line_cd":24006,"pref_cd":13,"post":"155-0032","add":"世田谷区代沢２-４３-８","lon":139.67344,"lat":35.660402,"open_ymd":"","close_ymd":"","e_sort":"2400604"},
{"station_cd":2400704,"station_g_cd":2400104,"station_name":"笹塚","station_name_k":"ササヅカ","station_name_r":"sasaduka","line_cd":24007,"pref_cd":13,"post":"151-0073","add":"渋谷区笹塚１-５６-７","lon":139.667251,"lat":35.673758,"open_ymd":"","close_ymd":"","e_sort":"2400604"},
{"station_cd":2400605,"station_g_cd":2400605,"station_name":"下北沢","station_name_k":"シモキタザワ","station_name_r":"shimokitazawa","line_cd":24006,"pref_cd":13,"post":"155-0031","add":"世田谷区北沢２丁目","lon":139.66691,"lat":35.661539,"open_ymd":"","close_ymd":"","e_sort":"2400605"},
{"station_cd":2400606,"station_g_cd":2400606,"station_name":"新代田","station_name_k":"シンダイタ","station_name_r":"shinndaita","line_cd":24006,"pref_cd":13,"post":"155-0033","add":"世田谷区代田５-３０-１８","lon":139.660524,"lat":35.662593,"open_ymd":"","close_ymd":"","e_sort":"2400606"},
{"station_cd":2400607,"station_g_cd":2400607,"station_name":"東松原","station_name_k":"ヒガシマツバラ","station_name_r":"higashimatsubara","line_cd":24006,"pref_cd":13,"post":"156-0043","add":"世田谷区松原５-２-６","lon":139.655535,"lat":35.662634,"open_ymd":"","close_ymd":"","e_sort":"2400607"},
{"station_cd":2400608,"station_g_cd":2400106,"station_name":"明大前","station_name_k":"メイダイマエ","station_name_r":"meidaimae","line_cd":24006,"pref_cd":13,"post":"156-0043","add":"世田谷区松原２-４５-１","lon":139.650352,"lat":35.668758,"open_ymd":"","close_ymd":"","e_sort":"2400608"},
{"station_cd":2400609,"station_g_cd":2400609,"station_name":"永福町","station_name_k":"エイフクチョウ","station_name_r":"eifukuchou","line_cd":24006,"pref_cd":13,"post":"168-0064","add":"杉並区永福２-６０-３１","lon":139.642733,"lat":35.67629,"open_ymd":"","close_ymd":"","e_sort":"2400609"},
{"station_cd":2400610,"station_g_cd":2400610,"station_name":"西永福","station_name_k":"ニシエイフク","station_name_r":"nishieifuku","line_cd":24006,"pref_cd":13,"post":"168-0064","add":"杉並区永福３-３６-１","lon":139.634936,"lat":35.678918,"open_ymd":"","close_ymd":"","e_sort":"2400610"},
{"station_cd":2400611,"station_g_cd":2400611,"station_name":"浜田山","station_name_k":"ハマダヤマ","station_name_r":"hamadayama","line_cd":24006,"pref_cd":13,"post":"168-0065","add":"杉並区浜田山３-３１-２","lon":139.627528,"lat":35.681603,"open_ymd":"","close_ymd":"","e_sort":"2400611"},
{"station_cd":2400612,"station_g_cd":2400612,"station_name":"高井戸","station_name_k":"タカイド","station_name_r":"takaido","line_cd":24006,"pref_cd":13,"post":"168-0071","add":"杉並区高井戸西２-１-２６","lon":139.615115,"lat":35.683253,"open_ymd":"","close_ymd":"","e_sort":"2400612"},
{"station_cd":2400613,"station_g_cd":2400613,"station_name":"富士見ヶ丘","station_name_k":"フジミガオカ","station_name_r":"fujimigaoka","line_cd":24006,"pref_cd":13,"post":"","add":"東京都杉並区久我山五丁目1番25号","lon":139.607072,"lat":35.684805,"open_ymd":"","close_ymd":"","e_sort":"2400613"},
{"station_cd":2400614,"station_g_cd":2400614,"station_name":"久我山","station_name_k":"クガヤマ","station_name_r":"kugayama","line_cd":24006,"pref_cd":13,"post":"168-0082","add":"杉並区久我山４-１-１１","lon":139.599211,"lat":35.688138,"open_ymd":"","close_ymd":"","e_sort":"2400614"},
{"station_cd":2400615,"station_g_cd":2400615,"station_name":"三鷹台","station_name_k":"ミタカダイ","station_name_r":"mitakadai","line_cd":24006,"pref_cd":13,"post":"181-0001","add":"三鷹市井の頭１-３２-１","lon":139.589298,"lat":35.692046,"open_ymd":"","close_ymd":"","e_sort":"2400615"},
{"station_cd":2400616,"station_g_cd":2400616,"station_name":"井の頭公園","station_name_k":"イノカシラコウエン","station_name_r":"inokashirakouenn","line_cd":24006,"pref_cd":13,"post":"181-0001","add":"三鷹市井の頭３-３５-１２","lon":139.583112,"lat":35.697304,"open_ymd":"","close_ymd":"","e_sort":"2400616"},
{"station_cd":2400617,"station_g_cd":1131104,"station_name":"吉祥寺","station_name_k":"キチジョウジ","station_name_r":"kichijoji","line_cd":24006,"pref_cd":13,"post":"","add":"東京都武蔵野市吉祥寺南町","lon":139.580306,"lat":35.702291,"open_ymd":"","close_ymd":"","e_sort":"2400617"},
{"station_cd":2400702,"station_g_cd":2400102,"station_name":"初台","station_name_k":"ハツダイ","station_name_r":"hatsudai","line_cd":24007,"pref_cd":13,"post":"151-0061","add":"渋谷区初台１-５３-７","lon":139.686354,"lat":35.68123,"open_ymd":"","close_ymd":"","e_sort":"2400702"},
{"station_cd":2400703,"station_g_cd":2400103,"station_name":"幡ヶ谷","station_name_k":"ハタガヤ","station_name_r":"hayagaya","line_cd":24007,"pref_cd":13,"post":"-","add":"東京都渋谷区幡ヶ谷一丁目","lon":139.676183,"lat":35.677061,"open_ymd":"","close_ymd":"","e_sort":"2400703"},
{"station_cd":2500101,"station_g_cd":1130208,"station_name":"新宿","station_name_k":"シンジュク","station_name_r":"shinjuku","line_cd":25001,"pref_cd":13,"post":"","add":"東京都新宿区西新宿一丁目1-3","lon":139.699574,"lat":35.691435,"open_ymd":"","close_ymd":"","e_sort":"2500101"},
{"station_cd":2500102,"station_g_cd":2500102,"station_name":"南新宿","station_name_k":"ミナミシンジュク","station_name_r":"minamishinnjuku","line_cd":25001,"pref_cd":13,"post":"151-0053","add":"渋谷区代々木２丁目","lon":139.69867,"lat":35.683483,"open_ymd":"","close_ymd":"","e_sort":"2500102"},
{"station_cd":2500103,"station_g_cd":2500103,"station_name":"参宮橋","station_name_k":"サングウバシ","station_name_r":"sannguubashi","line_cd":25001,"pref_cd":13,"post":"151-0053","add":"渋谷区代々木４丁目","lon":139.693568,"lat":35.678586,"open_ymd":"","close_ymd":"","e_sort":"2500103"},
{"station_cd":2500104,"station_g_cd":2500104,"station_name":"代々木八幡","station_name_k":"ヨヨギハチマン","station_name_r":"yoyogihachimann","line_cd":25001,"pref_cd":13,"post":"151-0053","add":"渋谷区代々木５丁目","lon":139.688913,"lat":35.669715,"open_ymd":"","close_ymd":"","e_sort":"2500104"},
{"station_cd":2500105,"station_g_cd":2500105,"station_name":"代々木上原","station_name_k":"ヨヨギウエハラ","station_name_r":"yoyogiuehara","line_cd":25001,"pref_cd":13,"post":"151-0066","add":"渋谷区西原３丁目","lon":139.680153,"lat":35.669159,"open_ymd":"","close_ymd":"","e_sort":"2500105"},
{"station_cd":2500106,"station_g_cd":2500106,"station_name":"東北沢","station_name_k":"ヒガシキタザワ","station_name_r":"higashikitazawa","line_cd":25001,"pref_cd":13,"post":"155-0031","add":"世田谷区北沢３丁目","lon":139.673014,"lat":35.665379,"open_ymd":"","close_ymd":"","e_sort":"2500106"},
{"station_cd":2500107,"station_g_cd":2400605,"station_name":"下北沢","station_name_k":"シモキタザワ","station_name_r":"shimokitazawa","line_cd":25001,"pref_cd":13,"post":"155-0031","add":"世田谷区北沢２丁目","lon":139.667516,"lat":35.661655,"open_ymd":"","close_ymd":"","e_sort":"2500107"},
{"station_cd":2500108,"station_g_cd":2500108,"station_name":"世田谷代田","station_name_k":"セタガヤダイタ","station_name_r":"setagayadaita","line_cd":25001,"pref_cd":13,"post":"155-0033","add":"世田谷区代田２丁目","lon":139.661557,"lat":35.65834,"open_ymd":"","close_ymd":"","e_sort":"2500108"},
{"station_cd":2500109,"station_g_cd":2500109,"station_name":"梅ヶ丘","station_name_k":"ウメガオカ","station_name_r":"umegaoka","line_cd":25001,"pref_cd":13,"post":"","add":"東京都世田谷区梅丘","lon":139.653628,"lat":35.656024,"open_ymd":"","close_ymd":"","e_sort":"2500109"},
{"station_cd":2500110,"station_g_cd":2500110,"station_name":"豪徳寺","station_name_k":"ゴウトクジ","station_name_r":"goutokuji","line_cd":25001,"pref_cd":13,"post":"154-0021","add":"世田谷区豪徳寺１丁目","lon":139.647381,"lat":35.653807,"open_ymd":"","close_ymd":"","e_sort":"2500110"},
{"station_cd":2500111,"station_g_cd":2500111,"station_name":"経堂","station_name_k":"キョウドウ","station_name_r":"kyoudou","line_cd":25001,"pref_cd":13,"post":"156-0052","add":"世田谷区経堂１丁目","lon":139.635993,"lat":35.650991,"open_ymd":"","close_ymd":"","e_sort":"2500111"},
{"station_cd":2500112,"station_g_cd":2500112,"station_name":"千歳船橋","station_name_k":"チトセフナバシ","station_name_r":"chitosefunabashi","line_cd":25001,"pref_cd":13,"post":"156-0055","add":"世田谷区船橋１丁目","lon":139.624544,"lat":35.647616,"open_ymd":"","close_ymd":"","e_sort":"2500112"},
{"station_cd":2500113,"station_g_cd":2500113,"station_name":"祖師ヶ谷大蔵","station_name_k":"ソシガヤオオクラ","station_name_r":"soshigaya-okura","line_cd":25001,"pref_cd":13,"post":"","add":"東京都世田谷区祖師谷1丁目","lon":139.609659,"lat":35.643236,"open_ymd":"","close_ymd":"","e_sort":"2500113"},
{"station_cd":2500114,"station_g_cd":2500114,"station_name":"成城学園前","station_name_k":"セイジョウガクエンマエ","station_name_r":"seijougakuennmae","line_cd":25001,"pref_cd":13,"post":"157-0066","add":"世田谷区成城６丁目","lon":139.598958,"lat":35.640114,"open_ymd":"","close_ymd":"","e_sort":"2500114"},
{"station_cd":2500115,"station_g_cd":2500115,"station_name":"喜多見","station_name_k":"キタミ","station_name_r":"kitami","line_cd":25001,"pref_cd":13,"post":"157-0067","add":"世田谷区喜多見９丁目","lon":139.587445,"lat":35.636697,"open_ymd":"","close_ymd":"","e_sort":"2500115"},
{"station_cd":2500116,"station_g_cd":2500116,"station_name":"狛江","station_name_k":"コマエ","station_name_r":"komae","line_cd":25001,"pref_cd":13,"post":"201-0014","add":"狛江市東和泉１丁目","lon":139.577127,"lat":35.632001,"open_ymd":"","close_ymd":"","e_sort":"2500116"},
{"station_cd":2500117,"station_g_cd":2500117,"station_name":"和泉多摩川","station_name_k":"イズミタマガワ","station_name_r":"izumitamagawa","line_cd":25001,"pref_cd":13,"post":"201-0014","add":"狛江市東和泉４丁目","lon":139.573695,"lat":35.627349,"open_ymd":"","close_ymd":"","e_sort":"2500117"},
{"station_cd":2500118,"station_g_cd":1130314,"station_name":"登戸","station_name_k":"ノボリト","station_name_r":"noborito","line_cd":25001,"pref_cd":14,"post":"214-0014","add":"川崎市多摩区登戸","lon":139.569449,"lat":35.62115,"open_ymd":"","close_ymd":"","e_sort":"2500118"},
{"station_cd":2500119,"station_g_cd":2500119,"station_name":"向ヶ丘遊園","station_name_k":"ムコウガオカユウエン","station_name_r":"mukogaoka-yuen","line_cd":25001,"pref_cd":14,"post":"","add":"神奈川県川崎市多摩区登戸","lon":139.564719,"lat":35.617273,"open_ymd":"","close_ymd":"","e_sort":"2500119"},
{"station_cd":2500120,"station_g_cd":2500120,"station_name":"生田","station_name_k":"イクタ","station_name_r":"ikuta","line_cd":25001,"pref_cd":14,"post":"214-0038","add":"川崎市多摩区生田７丁目","lon":139.542024,"lat":35.614954,"open_ymd":"","close_ymd":"","e_sort":"2500120"},
{"station_cd":2500121,"station_g_cd":2500121,"station_name":"読売ランド前","station_name_k":"ヨミウリランドマエ","station_name_r":"yomiuriranndomae","line_cd":25001,"pref_cd":14,"post":"214-0037","add":"川崎市多摩区西生田","lon":139.527903,"lat":35.614723,"open_ymd":"","close_ymd":"","e_sort":"2500121"},
{"station_cd":2500122,"station_g_cd":2500122,"station_name":"百合ヶ丘","station_name_k":"ユリガオカ","station_name_r":"yurigaoka","line_cd":25001,"pref_cd":14,"post":"","add":"川崎市麻生区百合丘一丁目21番1号","lon":139.516121,"lat":35.60903,"open_ymd":"","close_ymd":"","e_sort":"2500122"},
{"station_cd":2500123,"station_g_cd":2500123,"station_name":"新百合ヶ丘","station_name_k":"シンユリガオカ","station_name_r":"shin-yurigaoka","line_cd":25001,"pref_cd":14,"post":"","add":"川崎市麻生区万福寺一丁目18番1号","lon":139.507608,"lat":35.603705,"open_ymd":"","close_ymd":"","e_sort":"2500123"},
{"station_cd":2500301,"station_g_cd":2500123,"station_name":"新百合ヶ丘","station_name_k":"シンユリガオカ","station_name_r":"shin-yurigaoka","line_cd":25003,"pref_cd":14,"post":"","add":"川崎市麻生区万福寺一丁目18番1号","lon":139.507608,"lat":35.603705,"open_ymd":"","close_ymd":"","e_sort":"2500301"},
{"station_cd":2600101,"station_g_cd":1130205,"station_name":"渋谷","station_name_k":"シブヤ","station_name_r":"shibuya","line_cd":26001,"pref_cd":13,"post":"-","add":"東京都渋谷区渋谷二丁目24-1","lon":139.702417,"lat":35.659545,"open_ymd":"","close_ymd":"","e_sort":"2600101"},
{"station_cd":2600102,"station_g_cd":2600102,"station_name":"代官山","station_name_k":"ダイカンヤマ","station_name_r":"daikannyama","line_cd":26001,"pref_cd":13,"post":"150-0034","add":"渋谷区代官山町１９-４","lon":139.703284,"lat":35.648193,"open_ymd":"","close_ymd":"","e_sort":"2600102"},
{"station_cd":2600103,"station_g_cd":2600103,"station_name":"中目黒","station_name_k":"ナカメグロ","station_name_r":"nakameguro","line_cd":26001,"pref_cd":13,"post":"153-0051","add":"目黒区上目黒３-４-１","lon":139.698621,"lat":35.643854,"open_ymd":"","close_ymd":"","e_sort":"2600103"},
{"station_cd":2600104,"station_g_cd":2600104,"station_name":"祐天寺","station_name_k":"ユウテンジ","station_name_r":"yuutennji","line_cd":26001,"pref_cd":13,"post":"153-0052","add":"目黒区祐天寺２-１３-３","lon":139.690758,"lat":35.637163,"open_ymd":"","close_ymd":"","e_sort":"2600104"},
{"station_cd":2600105,"station_g_cd":2600105,"station_name":"学芸大学","station_name_k":"ガクゲイダイガク","station_name_r":"gakugeidaigaku","line_cd":26001,"pref_cd":13,"post":"152-0004","add":"目黒区鷹番３-２-１","lon":139.68522,"lat":35.628786,"open_ymd":"","close_ymd":"","e_sort":"2600105"},
{"station_cd":2600106,"station_g_cd":2600106,"station_name":"都立大学","station_name_k":"トリツダイガク","station_name_r":"toritsudaigaku","line_cd":26001,"pref_cd":13,"post":"152-0031","add":"目黒区中根１-５-１","lon":139.676393,"lat":35.617835,"open_ymd":"","close_ymd":"","e_sort":"2600106"},
{"station_cd":2600107,"station_g_cd":2600107,"station_name":"自由が丘","station_name_k":"ジユウガオカ","station_name_r":"jiyuugaoka","line_cd":26001,"pref_cd":13,"post":"152-0035","add":"目黒区自由が丘１-３０-１","lon":139.668664,"lat":35.607224,"open_ymd":"","close_ymd":"","e_sort":"2600107"},
{"station_cd":2600108,"station_g_cd":2600108,"station_name":"田園調布","station_name_k":"デンエンチョウフ","station_name_r":"dennennchoufu","line_cd":26001,"pref_cd":13,"post":"145-0071","add":"大田区田園調布３-２５-１８","lon":139.667356,"lat":35.596815,"open_ymd":"","close_ymd":"","e_sort":"2600108"},
{"station_cd":2600109,"station_g_cd":2600109,"station_name":"多摩川","station_name_k":"タマガワ","station_name_r":"tamagawa","line_cd":26001,"pref_cd":13,"post":"145-0071","add":"大田区田園調布１-５３-８","lon":139.668723,"lat":35.589591,"open_ymd":"","close_ymd":"","e_sort":"2600109"},
{"station_cd":2600110,"station_g_cd":2600110,"station_name":"新丸子","station_name_k":"シンマルコ","station_name_r":"shinnmaruko","line_cd":26001,"pref_cd":14,"post":"211-0005","add":"川崎市中原区新丸子町７６６","lon":139.661964,"lat":35.58049,"open_ymd":"","close_ymd":"","e_sort":"2600110"},
{"station_cd":2600111,"station_g_cd":1130307,"station_name":"武蔵小杉","station_name_k":"ムサシコスギ","station_name_r":"musashi-kosugi","line_cd":26001,"pref_cd":14,"post":"","add":"川崎市中原区小杉町三丁目","lon":139.659652,"lat":35.575752,"open_ymd":"","close_ymd":"","e_sort":"2600111"},
{"station_cd":2600112,"station_g_cd":2600112,"station_name":"元住吉","station_name_k":"モトスミヨシ","station_name_r":"motosumiyoshi","line_cd":26001,"pref_cd":14,"post":"211-0025","add":"川崎市中原区木月６７９","lon":139.654668,"lat":35.565698,"open_ymd":"","close_ymd":"","e_sort":"2600112"},
{"station_cd":2600113,"station_g_cd":2600113,"station_name":"日吉","station_name_k":"ヒヨシ","station_name_r":"hiyoshi","line_cd":26001,"pref_cd":14,"post":"223-0061","add":"横浜市港北区日吉２-１-１","lon":139.646944,"lat":35.5539,"open_ymd":"","close_ymd":"","e_sort":"2600113"},
{"station_cd":2600114,"station_g_cd":2600114,"station_name":"綱島","station_name_k":"ツナシマ","station_name_r":"tsunashima","line_cd":26001,"pref_cd":14,"post":"223-0053","add":"横浜市港北区綱島西１-１-８","lon":139.63491,"lat":35.536906,"open_ymd":"","close_ymd":"","e_sort":"2600114"},
{"station_cd":2600115,"station_g_cd":2600115,"station_name":"大倉山","station_name_k":"オオクラヤマ","station_name_r":"ookurayama","line_cd":26001,"pref_cd":14,"post":"222-0031","add":"横浜市港北区太尾町３７５","lon":139.629808,"lat":35.52243,"open_ymd":"","close_ymd":"","e_sort":"2600115"},
{"station_cd":2600116,"station_g_cd":1130603,"station_name":"菊名","station_name_k":"キクナ","station_name_r":"kikuna","line_cd":26001,"pref_cd":14,"post":"222-0011","add":"横浜市港北区菊名７丁目","lon":139.63137,"lat":35.509854,"open_ymd":"","close_ymd":"","e_sort":"2600116"},
{"station_cd":2600117,"station_g_cd":2600117,"station_name":"妙蓮寺","station_name_k":"ミョウレンジ","station_name_r":"myourennji","line_cd":26001,"pref_cd":14,"post":"222-0011","add":"横浜市港北区菊名１-１-１","lon":139.633194,"lat":35.498779,"open_ymd":"","close_ymd":"","e_sort":"2600117"},
{"station_cd":2600118,"station_g_cd":2600118,"station_name":"白楽","station_name_k":"ハクラク","station_name_r":"hakuraku","line_cd":26001,"pref_cd":14,"post":"221-0065","add":"横浜市神奈川区白楽１００","lon":139.627875,"lat":35.489555,"open_ymd":"","close_ymd":"","e_sort":"2600118"},
{"station_cd":2600119,"station_g_cd":2600119,"station_name":"東白楽","station_name_k":"ヒガシハクラク","station_name_r":"higashihakuraku","line_cd":26001,"pref_cd":14,"post":"221-0065","add":"横浜市神奈川区白楽１２-１","lon":139.629364,"lat":35.483523,"open_ymd":"","close_ymd":"","e_sort":"2600119"},
{"station_cd":2600120,"station_g_cd":2600120,"station_name":"反町","station_name_k":"タンマチ","station_name_r":"tannmachi","line_cd":26001,"pref_cd":14,"post":"221-0825","add":"横浜市神奈川区反町１-１","lon":139.625337,"lat":35.47474,"open_ymd":"","close_ymd":"","e_sort":"2600120"},
{"station_cd":2600121,"station_g_cd":1130105,"station_name":"横浜","station_name_k":"ヨコハマ","station_name_r":"yokohama","line_cd":26001,"pref_cd":14,"post":"220-0011","add":"横浜市西区高島２丁目","lon":139.622299,"lat":35.466372,"open_ymd":"","close_ymd":"","e_sort":"2600121"},
{"station_cd":2600201,"station_g_cd":1130203,"station_name":"目黒","station_name_k":"メグロ","station_name_r":"meguro","line_cd":26002,"pref_cd":13,"post":"","add":"東京都品川区上大崎四丁目2-1","lon":139.7155,"lat":35.633272,"open_ymd":"","close_ymd":"","e_sort":"2600201"},
{"station_cd":2600202,"station_g_cd":2600202,"station_name":"不動前","station_name_k":"フドウマエ","station_name_r":"fudoumae","line_cd":26002,"pref_cd":13,"post":"141-0031","add":"品川区西五反田５-１２-１","lon":139.71469,"lat":35.626526,"open_ymd":"","close_ymd":"","e_sort":"2600202"},
{"station_cd":2600203,"station_g_cd":2600203,"station_name":"武蔵小山","station_name_k":"ムサシコヤマ","station_name_r":"musashikoyama","line_cd":26002,"pref_cd":13,"post":"142-0062","add":"品川区小山３-４-８","lon":139.704524,"lat":35.620538,"open_ymd":"","close_ymd":"","e_sort":"2600203"},
{"station_cd":2600204,"station_g_cd":2600204,"station_name":"西小山","station_name_k":"ニシコヤマ","station_name_r":"nishikoyama","line_cd":26002,"pref_cd":13,"post":"142-0062","add":"品川区小山６-３-１０","lon":139.698694,"lat":35.615455,"open_ymd":"","close_ymd":"","e_sort":"2600204"},
{"station_cd":2600205,"station_g_cd":2600205,"station_name":"洗足","station_name_k":"センゾク","station_name_r":"sennzoku","line_cd":26002,"pref_cd":13,"post":"152-0012","add":"目黒区洗足２-２１-１","lon":139.694367,"lat":35.61043,"open_ymd":"","close_ymd":"","e_sort":"2600205"},
{"station_cd":2600206,"station_g_cd":2600206,"station_name":"大岡山","station_name_k":"オオオカヤマ","station_name_r":"oookayama","line_cd":26002,"pref_cd":13,"post":"145-0062","add":"大田区北千束３-２７-１","lon":139.685909,"lat":35.607456,"open_ymd":"","close_ymd":"","e_sort":"2600206"},
{"station_cd":2600207,"station_g_cd":2600207,"station_name":"奥沢","station_name_k":"オクサワ","station_name_r":"okusawa","line_cd":26002,"pref_cd":13,"post":"158-0083","add":"世田谷区奥沢３-４７-１７","lon":139.672355,"lat":35.603947,"open_ymd":"","close_ymd":"","e_sort":"2600207"},
{"station_cd":2600208,"station_g_cd":2600108,"station_name":"田園調布","station_name_k":"デンエンチョウフ","station_name_r":"dennennchoufu","line_cd":26002,"pref_cd":13,"post":"145-0071","add":"大田区田園調布３-２５-１８","lon":139.667356,"lat":35.596815,"open_ymd":"","close_ymd":"","e_sort":"2600208"},
{"station_cd":2600209,"station_g_cd":2600109,"station_name":"多摩川","station_name_k":"タマガワ","station_name_r":"tamagawa","line_cd":26002,"pref_cd":13,"post":"145-0071","add":"大田区田園調布１-５３-８","lon":139.668723,"lat":35.589591,"open_ymd":"","close_ymd":"","e_sort":"2600209"},
{"station_cd":2600210,"station_g_cd":2600110,"station_name":"新丸子","station_name_k":"シンマルコ","station_name_r":"shinnmaruko","line_cd":26002,"pref_cd":14,"post":"211-0005","add":"川崎市中原区新丸子町７６６","lon":139.661964,"lat":35.58049,"open_ymd":"","close_ymd":"","e_sort":"2600210"},
{"station_cd":2600211,"station_g_cd":1130307,"station_name":"武蔵小杉","station_name_k":"ムサシコスギ","station_name_r":"musashi-kosugi","line_cd":26002,"pref_cd":14,"post":"","add":"川崎市中原区小杉町三丁目","lon":139.659652,"lat":35.575752,"open_ymd":"","close_ymd":"","e_sort":"2600211"},
{"station_cd":2600212,"station_g_cd":2600112,"station_name":"元住吉","station_name_k":"モトスミヨシ","station_name_r":"motosumiyoshi","line_cd":26002,"pref_cd":14,"post":"211-0025","add":"川崎市中原区木月６７９","lon":139.654668,"lat":35.565698,"open_ymd":"","close_ymd":"","e_sort":"2600212"},
{"station_cd":2600213,"station_g_cd":2600113,"station_name":"日吉","station_name_k":"ヒヨシ","station_name_r":"hiyoshi","line_cd":26002,"pref_cd":14,"post":"223-0061","add":"横浜市港北区日吉２-１-１","lon":139.646944,"lat":35.5539,"open_ymd":"","close_ymd":"","e_sort":"2600213"},
{"station_cd":2600301,"station_g_cd":1130205,"station_name":"渋谷","station_name_k":"シブヤ","station_name_r":"shibuya","line_cd":26003,"pref_cd":13,"post":"","add":"東京都渋谷区道玄坂二丁目1-1","lon":139.702148,"lat":35.65802,"open_ymd":"","close_ymd":"","e_sort":"2600301"},
{"station_cd":2600302,"station_g_cd":2600302,"station_name":"池尻大橋","station_name_k":"イケジリオオハシ","station_name_r":"ikejirioohashi","line_cd":26003,"pref_cd":13,"post":"154-0001","add":"世田谷区池尻３-２","lon":139.684319,"lat":35.650603,"open_ymd":"","close_ymd":"","e_sort":"2600302"},
{"station_cd":2600303,"station_g_cd":2600303,"station_name":"三軒茶屋","station_name_k":"サンゲンヂャヤ","station_name_r":"sanngenndyaya","line_cd":26003,"pref_cd":13,"post":"154-0004","add":"世田谷区太子堂４-２１-１","lon":139.670156,"lat":35.643716,"open_ymd":"","close_ymd":"","e_sort":"2600303"},
{"station_cd":2600304,"station_g_cd":2600304,"station_name":"駒沢大学","station_name_k":"コマザワダイガク","station_name_r":"komazawadaigaku","line_cd":26003,"pref_cd":13,"post":"154-0011","add":"世田谷区上馬４-３","lon":139.661702,"lat":35.633471,"open_ymd":"","close_ymd":"","e_sort":"2600304"},
{"station_cd":2600305,"station_g_cd":2600305,"station_name":"桜新町","station_name_k":"サクラシンマチ","station_name_r":"sakurashinnmachi","line_cd":26003,"pref_cd":13,"post":"154-0015","add":"世田谷区桜新町２-８","lon":139.644779,"lat":35.631666,"open_ymd":"","close_ymd":"","e_sort":"2600305"},
{"station_cd":2600306,"station_g_cd":2600306,"station_name":"用賀","station_name_k":"ヨウガ","station_name_r":"youga","line_cd":26003,"pref_cd":13,"post":"158-0097","add":"世田谷区用賀２-３９","lon":139.633928,"lat":35.626436,"open_ymd":"","close_ymd":"","e_sort":"2600306"},
{"station_cd":2600307,"station_g_cd":2600307,"station_name":"二子玉川","station_name_k":"フタコタマガワ","station_name_r":"futakotamagawa","line_cd":26003,"pref_cd":13,"post":"158-0094","add":"世田谷区玉川２-２２-１３","lon":139.626685,"lat":35.611788,"open_ymd":"","close_ymd":"","e_sort":"2600307"},
{"station_cd":2600308,"station_g_cd":2600308,"station_name":"二子新地","station_name_k":"フタコシンチ","station_name_r":"futakoshinnchi","line_cd":26003,"pref_cd":14,"post":"213-0002","add":"川崎市高津区二子２-２-１","lon":139.622338,"lat":35.606994,"open_ymd":"","close_ymd":"","e_sort":"2600308"},
{"station_cd":2600309,"station_g_cd":2600309,"station_name":"高津","station_name_k":"タカツ","station_name_r":"takatsu","line_cd":26003,"pref_cd":14,"post":"213-0002","add":"川崎市高津区二子４-１-１","lon":139.616934,"lat":35.603248,"open_ymd":"","close_ymd":"","e_sort":"2600309"},
{"station_cd":2600310,"station_g_cd":1130310,"station_name":"溝の口","station_name_k":"ミゾノクチ","station_name_r":"mizonokuchi","line_cd":26003,"pref_cd":14,"post":"213-0001","add":"川崎市高津区溝口２-１-１","lon":139.610487,"lat":35.59984,"open_ymd":"","close_ymd":"","e_sort":"2600310"},
{"station_cd":2600311,"station_g_cd":2600311,"station_name":"梶が谷","station_name_k":"カジガヤ","station_name_r":"kajigaya","line_cd":26003,"pref_cd":14,"post":"213-0013","add":"川崎市高津区末長字姿見台８５","lon":139.605885,"lat":35.593963,"open_ymd":"","close_ymd":"","e_sort":"2600311"},
{"station_cd":2600312,"station_g_cd":2600312,"station_name":"宮崎台","station_name_k":"ミヤザキダイ","station_name_r":"miyazakidai","line_cd":26003,"pref_cd":14,"post":"216-0033","add":"川崎市宮前区宮崎２-１０-１２","lon":139.591313,"lat":35.587228,"open_ymd":"","close_ymd":"","e_sort":"2600312"},
{"station_cd":2600313,"station_g_cd":2600313,"station_name":"宮前平","station_name_k":"ミヤマエダイラ","station_name_r":"miyamaedaira","line_cd":26003,"pref_cd":14,"post":"216-0000","add":"川崎市宮前区宮前１-１１-１","lon":139.581983,"lat":35.584951,"open_ymd":"","close_ymd":"","e_sort":"2600313"},
{"station_cd":2600314,"station_g_cd":2600314,"station_name":"鷺沼","station_name_k":"サギヌマ","station_name_r":"saginuma","line_cd":26003,"pref_cd":14,"post":"216-0004","add":"川崎市宮前区鷺沼３-１-１","lon":139.573268,"lat":35.579762,"open_ymd":"","close_ymd":"","e_sort":"2600314"},
{"station_cd":2600315,"station_g_cd":2600315,"station_name":"たまプラーザ","station_name_k":"タマプラーザ","station_name_r":"tamapura-za","line_cd":26003,"pref_cd":14,"post":"225-0002","add":"横浜市青葉区美しが丘１-３","lon":139.558447,"lat":35.577427,"open_ymd":"","close_ymd":"","e_sort":"2600315"},
{"station_cd":2600316,"station_g_cd":2600316,"station_name":"あざみ野","station_name_k":"アザミノ","station_name_r":"azamino","line_cd":26003,"pref_cd":14,"post":"225-0011","add":"横浜市青葉区あざみ野２-１-１","lon":139.553462,"lat":35.568645,"open_ymd":"","close_ymd":"","e_sort":"2600316"},
{"station_cd":2600317,"station_g_cd":2600317,"station_name":"江田","station_name_k":"エダ","station_name_r":"eda","line_cd":26003,"pref_cd":14,"post":"225-0013","add":"横浜市青葉区荏田町２３６０","lon":139.551518,"lat":35.558671,"open_ymd":"","close_ymd":"","e_sort":"2600317"},
{"station_cd":2600318,"station_g_cd":2600318,"station_name":"市が尾","station_name_k":"イチガオ","station_name_r":"ichigao","line_cd":26003,"pref_cd":14,"post":"225-0024","add":"横浜市青葉区市ケ尾町１１５６-１","lon":139.541496,"lat":35.551483,"open_ymd":"","close_ymd":"","e_sort":"2600318"},
{"station_cd":2600319,"station_g_cd":2600319,"station_name":"藤が丘","station_name_k":"フジガオカ","station_name_r":"fujigaoka","line_cd":26003,"pref_cd":14,"post":"227-0043","add":"横浜市青葉区藤が丘２-５-４","lon":139.527655,"lat":35.543454,"open_ymd":"","close_ymd":"","e_sort":"2600319"},
{"station_cd":2600320,"station_g_cd":2600320,"station_name":"青葉台","station_name_k":"アオバダイ","station_name_r":"aobadai","line_cd":26003,"pref_cd":14,"post":"227-0062","add":"横浜市青葉区青葉台１-７-３","lon":139.517376,"lat":35.542855,"open_ymd":"","close_ymd":"","e_sort":"2600320"},
{"station_cd":2600321,"station_g_cd":2600321,"station_name":"田奈","station_name_k":"タナ","station_name_r":"tana","line_cd":26003,"pref_cd":14,"post":"227-0064","add":"横浜市青葉区田奈町３９８７","lon":139.504855,"lat":35.536204,"open_ymd":"","close_ymd":"","e_sort":"2600321"},
{"station_cd":2600401,"station_g_cd":1133228,"station_name":"大井町","station_name_k":"オオイマチ","station_name_r":"ooimachi","line_cd":26004,"pref_cd":13,"post":"140-0014","add":"品川区大井１丁目","lon":139.735025,"lat":35.607535,"open_ymd":"","close_ymd":"","e_sort":"2600401"},
{"station_cd":2600402,"station_g_cd":2600402,"station_name":"下神明","station_name_k":"シモシンメイ","station_name_r":"shimoshinnmei","line_cd":26004,"pref_cd":13,"post":"141-0033","add":"品川区西品川１-２９-６","lon":139.726256,"lat":35.608704,"open_ymd":"","close_ymd":"","e_sort":"2600402"},
{"station_cd":2600403,"station_g_cd":2600403,"station_name":"戸越公園","station_name_k":"トゴシコウエン","station_name_r":"togoshikouenn","line_cd":26004,"pref_cd":13,"post":"142-0041","add":"品川区戸越５-１０-１５","lon":139.718159,"lat":35.608856,"open_ymd":"","close_ymd":"","e_sort":"2600403"},
{"station_cd":2600404,"station_g_cd":2600404,"station_name":"中延","station_name_k":"ナカノブ","station_name_r":"nakanobu","line_cd":26004,"pref_cd":13,"post":"142-0053","add":"品川区中延４-５-５","lon":139.712526,"lat":35.60571,"open_ymd":"","close_ymd":"","e_sort":"2600404"},
{"station_cd":2600405,"station_g_cd":2600405,"station_name":"荏原町","station_name_k":"エバラマチ","station_name_r":"ebaramachi","line_cd":26004,"pref_cd":13,"post":"142-0053","add":"品川区中延５-２-１","lon":139.707571,"lat":35.60382,"open_ymd":"","close_ymd":"","e_sort":"2600405"},
{"station_cd":2600406,"station_g_cd":2600406,"station_name":"旗の台","station_name_k":"ハタノダイ","station_name_r":"hatanodai","line_cd":26004,"pref_cd":13,"post":"142-0064","add":"品川区旗の台２-１３-１","lon":139.702286,"lat":35.604923,"open_ymd":"","close_ymd":"","e_sort":"2600406"},
{"station_cd":2600407,"station_g_cd":2600407,"station_name":"北千束","station_name_k":"キタセンゾク","station_name_r":"kitasennzoku","line_cd":26004,"pref_cd":13,"post":"145-0062","add":"大田区北千束２-１６-１","lon":139.693303,"lat":35.606311,"open_ymd":"","close_ymd":"","e_sort":"2600407"},
{"station_cd":2600408,"station_g_cd":2600206,"station_name":"大岡山","station_name_k":"オオオカヤマ","station_name_r":"oookayama","line_cd":26004,"pref_cd":13,"post":"145-0062","add":"大田区北千束３-２７-１","lon":139.685909,"lat":35.607456,"open_ymd":"","close_ymd":"","e_sort":"2600408"},
{"station_cd":2600409,"station_g_cd":2600409,"station_name":"緑が丘","station_name_k":"ミドリガオカ","station_name_r":"midorigaoka","line_cd":26004,"pref_cd":13,"post":"152-0034","add":"目黒区緑が丘３-１-１２","lon":139.679482,"lat":35.60638,"open_ymd":"","close_ymd":"","e_sort":"2600409"},
{"station_cd":2600410,"station_g_cd":2600107,"station_name":"自由が丘","station_name_k":"ジユウガオカ","station_name_r":"jiyuugaoka","line_cd":26004,"pref_cd":13,"post":"152-0035","add":"目黒区自由が丘１-３０-１","lon":139.668664,"lat":35.607224,"open_ymd":"","close_ymd":"","e_sort":"2600410"},
{"station_cd":2600411,"station_g_cd":2600411,"station_name":"九品仏","station_name_k":"クホンブツ","station_name_r":"kuhonnbutsu","line_cd":26004,"pref_cd":13,"post":"158-0083","add":"世田谷区奥沢７-２０-１","lon":139.660992,"lat":35.60538,"open_ymd":"","close_ymd":"","e_sort":"2600411"},
{"station_cd":2600412,"station_g_cd":2600412,"station_name":"尾山台","station_name_k":"オヤマダイ","station_name_r":"oyamadai","line_cd":26004,"pref_cd":13,"post":"158-0082","add":"世田谷区等々力５-５-７","lon":139.653862,"lat":35.606971,"open_ymd":"","close_ymd":"","e_sort":"2600412"},
{"station_cd":2600413,"station_g_cd":2600413,"station_name":"等々力","station_name_k":"トドロキ","station_name_r":"todoroki","line_cd":26004,"pref_cd":13,"post":"158-0082","add":"世田谷区等々力３-１-１","lon":139.647938,"lat":35.608369,"open_ymd":"","close_ymd":"","e_sort":"2600413"},
{"station_cd":2600414,"station_g_cd":2600414,"station_name":"上野毛","station_name_k":"カミノゲ","station_name_r":"kaminoge","line_cd":26004,"pref_cd":13,"post":"158-0093","add":"世田谷区上野毛１-２６-６","lon":139.638917,"lat":35.611957,"open_ymd":"","close_ymd":"","e_sort":"2600414"},
{"station_cd":2600415,"station_g_cd":2600307,"station_name":"二子玉川","station_name_k":"フタコタマガワ","station_name_r":"futakotamagawa","line_cd":26004,"pref_cd":13,"post":"158-0094","add":"世田谷区玉川２-２２-１３","lon":139.626685,"lat":35.611788,"open_ymd":"","close_ymd":"","e_sort":"2600415"},
{"station_cd":2600416,"station_g_cd":2600308,"station_name":"二子新地","station_name_k":"フタコシンチ","station_name_r":"futakoshinnchi","line_cd":26004,"pref_cd":14,"post":"213-0002","add":"川崎市高津区二子２-２-１","lon":139.622338,"lat":35.606994,"open_ymd":"","close_ymd":"","e_sort":"2600416"},
{"station_cd":2600417,"station_g_cd":2600309,"station_name":"高津","station_name_k":"タカツ","station_name_r":"takatsu","line_cd":26004,"pref_cd":14,"post":"213-0002","add":"川崎市高津区二子４-１-１","lon":139.616934,"lat":35.603248,"open_ymd":"","close_ymd":"","e_sort":"2600417"},
{"station_cd":2600418,"station_g_cd":1130310,"station_name":"溝の口","station_name_k":"ミゾノクチ","station_name_r":"mizonokuchi","line_cd":26004,"pref_cd":14,"post":"213-0001","add":"川崎市高津区溝口２-１-１","lon":139.610487,"lat":35.59984,"open_ymd":"","close_ymd":"","e_sort":"2600418"},
{"station_cd":2600501,"station_g_cd":1130202,"station_name":"五反田","station_name_k":"ゴタンダ","station_name_r":"gotanda","line_cd":26005,"pref_cd":13,"post":"","add":"東京都品川区東五反田二丁目1-1","lon":139.724175,"lat":35.625262,"open_ymd":"","close_ymd":"","e_sort":"2600501"},
{"station_cd":2600502,"station_g_cd":2600502,"station_name":"大崎広小路","station_name_k":"オオサキヒロコウジ","station_name_r":"oosakihirokouji","line_cd":26005,"pref_cd":13,"post":"141-0032","add":"品川区大崎４-１-１","lon":139.722339,"lat":35.622244,"open_ymd":"","close_ymd":"","e_sort":"2600502"},
{"station_cd":2600503,"station_g_cd":2600503,"station_name":"戸越銀座","station_name_k":"トゴシギンザ","station_name_r":"togoshiginnza","line_cd":26005,"pref_cd":13,"post":"142-0051","add":"品川区平塚２-１６-１","lon":139.714862,"lat":35.615928,"open_ymd":"","close_ymd":"","e_sort":"2600503"},
{"station_cd":2600504,"station_g_cd":2600504,"station_name":"荏原中延","station_name_k":"エバラナカノブ","station_name_r":"ebaranakanobu","line_cd":26005,"pref_cd":13,"post":"142-0053","add":"品川区中延２-８-１","lon":139.712196,"lat":35.610056,"open_ymd":"","close_ymd":"","e_sort":"2600504"},
{"station_cd":2600505,"station_g_cd":2600406,"station_name":"旗の台","station_name_k":"ハタノダイ","station_name_r":"hatanodai","line_cd":26005,"pref_cd":13,"post":"142-0064","add":"品川区旗の台２-１３-１","lon":139.702286,"lat":35.604923,"open_ymd":"","close_ymd":"","e_sort":"2600505"},
{"station_cd":2600506,"station_g_cd":2600506,"station_name":"長原","station_name_k":"ナガハラ","station_name_r":"nagahara","line_cd":26005,"pref_cd":13,"post":"145-0064","add":"大田区上池台１-１０-１０","lon":139.697881,"lat":35.60219,"open_ymd":"","close_ymd":"","e_sort":"2600506"},
{"station_cd":2600507,"station_g_cd":2600507,"station_name":"洗足池","station_name_k":"センゾクイケ","station_name_r":"sennzokuike","line_cd":26005,"pref_cd":13,"post":"145-0065","add":"大田区東雪谷１-１-６","lon":139.690896,"lat":35.599648,"open_ymd":"","close_ymd":"","e_sort":"2600507"},
{"station_cd":2600508,"station_g_cd":2600508,"station_name":"石川台","station_name_k":"イシカワダイ","station_name_r":"ishikawadai","line_cd":26005,"pref_cd":13,"post":"145-0065","add":"大田区東雪谷２-２３-１","lon":139.685063,"lat":35.596888,"open_ymd":"","close_ymd":"","e_sort":"2600508"},
{"station_cd":2600509,"station_g_cd":2600509,"station_name":"雪が谷大塚","station_name_k":"ユキガヤオオツカ","station_name_r":"yukigayaootsuka","line_cd":26005,"pref_cd":13,"post":"145-0066","add":"大田区南雪谷２-２-１６","lon":139.681083,"lat":35.592038,"open_ymd":"","close_ymd":"","e_sort":"2600509"},
{"station_cd":2600510,"station_g_cd":2600510,"station_name":"御嶽山","station_name_k":"オンタケサン","station_name_r":"onntakesann","line_cd":26005,"pref_cd":13,"post":"145-0073","add":"大田区北嶺町３２-１７","lon":139.682473,"lat":35.585236,"open_ymd":"","close_ymd":"","e_sort":"2600510"},
{"station_cd":2600511,"station_g_cd":2600511,"station_name":"久が原","station_name_k":"クガハラ","station_name_r":"kugahara","line_cd":26005,"pref_cd":13,"post":"146-0084","add":"大田区南久が原２-６-１０","lon":139.685678,"lat":35.579499,"open_ymd":"","close_ymd":"","e_sort":"2600511"},
{"station_cd":2600512,"station_g_cd":2600512,"station_name":"千鳥町","station_name_k":"チドリチョウ","station_name_r":"chidorichou","line_cd":26005,"pref_cd":13,"post":"146-0083","add":"大田区千鳥１-２０-１","lon":139.69142,"lat":35.572983,"open_ymd":"","close_ymd":"","e_sort":"2600512"},
{"station_cd":2600513,"station_g_cd":2600513,"station_name":"池上","station_name_k":"イケガミ","station_name_r":"ikegami","line_cd":26005,"pref_cd":13,"post":"146-0082","add":"大田区池上６-３-１０","lon":139.702822,"lat":35.572025,"open_ymd":"","close_ymd":"","e_sort":"2600513"},
{"station_cd":2600514,"station_g_cd":2600514,"station_name":"蓮沼","station_name_k":"ハスヌマ","station_name_r":"hasunuma","line_cd":26005,"pref_cd":13,"post":"144-0051","add":"大田区西蒲田７-１７-１","lon":139.708544,"lat":35.564173,"open_ymd":"","close_ymd":"","e_sort":"2600514"},
{"station_cd":2600515,"station_g_cd":1133230,"station_name":"蒲田","station_name_k":"カマタ","station_name_r":"kamata","line_cd":26005,"pref_cd":13,"post":"144-0052","add":"大田区蒲田５丁目","lon":139.714626,"lat":35.561767,"open_ymd":"","close_ymd":"","e_sort":"2600515"},
{"station_cd":2600601,"station_g_cd":2600109,"station_name":"多摩川","station_name_k":"タマガワ","station_name_r":"tamagawa","line_cd":26006,"pref_cd":13,"post":"145-0071","add":"大田区田園調布１-５３-８","lon":139.668723,"lat":35.589591,"open_ymd":"","close_ymd":"","e_sort":"2600601"},
{"station_cd":2600602,"station_g_cd":2600602,"station_name":"沼部","station_name_k":"ヌマベ","station_name_r":"numabe","line_cd":26006,"pref_cd":13,"post":"145-0072","add":"大田区田園調布本町２８-１","lon":139.67326,"lat":35.582526,"open_ymd":"","close_ymd":"","e_sort":"2600602"},
{"station_cd":2600603,"station_g_cd":2600603,"station_name":"鵜の木","station_name_k":"ウノキ","station_name_r":"unoki","line_cd":26006,"pref_cd":13,"post":"146-0091","add":"大田区鵜の木２-４-１","lon":139.680554,"lat":35.575452,"open_ymd":"","close_ymd":"","e_sort":"2600603"},
{"station_cd":2600604,"station_g_cd":2600604,"station_name":"下丸子","station_name_k":"シモマルコ","station_name_r":"shimomaruko","line_cd":26006,"pref_cd":13,"post":"146-0092","add":"大田区下丸子３-７-１","lon":139.685576,"lat":35.571397,"open_ymd":"","close_ymd":"","e_sort":"2600604"},
{"station_cd":2600605,"station_g_cd":2600605,"station_name":"武蔵新田","station_name_k":"ムサシニッタ","station_name_r":"musashinitta","line_cd":26006,"pref_cd":13,"post":"146-0093","add":"大田区矢口１-１８-１","lon":139.692506,"lat":35.567806,"open_ymd":"","close_ymd":"","e_sort":"2600605"},
{"station_cd":2600606,"station_g_cd":2600606,"station_name":"矢口渡","station_name_k":"ヤグチノワタシ","station_name_r":"yaguchinowatashi","line_cd":26006,"pref_cd":13,"post":"146-0095","add":"大田区多摩川１-２０-１５","lon":139.700389,"lat":35.562462,"open_ymd":"","close_ymd":"","e_sort":"2600606"},
{"station_cd":2600607,"station_g_cd":1133230,"station_name":"蒲田","station_name_k":"カマタ","station_name_r":"kamata","line_cd":26006,"pref_cd":13,"post":"144-0052","add":"大田区蒲田５丁目","lon":139.714626,"lat":35.561767,"open_ymd":"","close_ymd":"","e_sort":"2600607"},
{"station_cd":2700101,"station_g_cd":2700101,"station_name":"泉岳寺","station_name_k":"センガクジ","station_name_r":"senngakuji","line_cd":27001,"pref_cd":13,"post":"108-0074","add":"港区高輪２-１６-３４","lon":139.74002,"lat":35.638692,"open_ymd":"","close_ymd":"","e_sort":"2700101"},
{"station_cd":2700102,"station_g_cd":1130103,"station_name":"品川","station_name_k":"シナガワ","station_name_r":"shinagawa","line_cd":27001,"pref_cd":13,"post":"","add":"東京都港区高輪三丁目26-26","lon":139.73809,"lat":35.628284,"open_ymd":"","close_ymd":"","e_sort":"2700102"},
{"station_cd":2700103,"station_g_cd":2700103,"station_name":"北品川","station_name_k":"キタシナガワ","station_name_r":"kitashinagawa","line_cd":27001,"pref_cd":13,"post":"140-0001","add":"品川区北品川１-１-４","lon":139.739191,"lat":35.622458,"open_ymd":"","close_ymd":"","e_sort":"2700103"},
{"station_cd":2700104,"station_g_cd":2700104,"station_name":"新馬場","station_name_k":"シンバンバ","station_name_r":"shinnbannba","line_cd":27001,"pref_cd":13,"post":"140-0001","add":"品川区北品川２-１８-１","lon":139.741366,"lat":35.61762,"open_ymd":"","close_ymd":"","e_sort":"2700104"},
{"station_cd":2700105,"station_g_cd":2700105,"station_name":"青物横丁","station_name_k":"アオモノヨコチョウ","station_name_r":"aomonoyokochou","line_cd":27001,"pref_cd":13,"post":"140-0004","add":"品川区南品川３-１-２０","lon":139.742958,"lat":35.609351,"open_ymd":"","close_ymd":"","e_sort":"2700105"},
{"station_cd":2700106,"station_g_cd":2700106,"station_name":"鮫洲","station_name_k":"サメズ","station_name_r":"samezu","line_cd":27001,"pref_cd":13,"post":"140-0011","add":"品川区東大井１-２-２０","lon":139.742227,"lat":35.604977,"open_ymd":"","close_ymd":"","e_sort":"2700106"},
{"station_cd":2700107,"station_g_cd":2700107,"station_name":"立会川","station_name_k":"タチアイガワ","station_name_r":"tachiaigawa","line_cd":27001,"pref_cd":13,"post":"140-0011","add":"品川区東大井２-２３-１","lon":139.738886,"lat":35.598489,"open_ymd":"","close_ymd":"","e_sort":"2700107"},
{"station_cd":2700108,"station_g_cd":2700108,"station_name":"大森海岸","station_name_k":"オオモリカイガン","station_name_r":"oomorikaigann","line_cd":27001,"pref_cd":13,"post":"140-0013","add":"品川区南大井３-３２-１","lon":139.73544,"lat":35.587576,"open_ymd":"","close_ymd":"","e_sort":"2700108"},
{"station_cd":2700109,"station_g_cd":2700109,"station_name":"平和島","station_name_k":"ヘイワジマ","station_name_r":"heiwajima","line_cd":27001,"pref_cd":13,"post":"143-0016","add":"大田区大森北６-１３-１１","lon":139.73491,"lat":35.57868,"open_ymd":"","close_ymd":"","e_sort":"2700109"},
{"station_cd":2700110,"station_g_cd":2700110,"station_name":"大森町","station_name_k":"オオモリマチ","station_name_r":"oomorimachi","line_cd":27001,"pref_cd":13,"post":"143-0015","add":"大田区大森西３-２４-７","lon":139.732027,"lat":35.572431,"open_ymd":"","close_ymd":"","e_sort":"2700110"},
{"station_cd":2700111,"station_g_cd":2700111,"station_name":"梅屋敷","station_name_k":"ウメヤシキ","station_name_r":"umeyashiki","line_cd":27001,"pref_cd":13,"post":"144-0052","add":"大田区蒲田２-２８-１","lon":139.728266,"lat":35.566873,"open_ymd":"","close_ymd":"","e_sort":"2700111"},
{"station_cd":2700112,"station_g_cd":2700112,"station_name":"京急蒲田","station_name_k":"ケイキュウカマタ","station_name_r":"keikyuukamata","line_cd":27001,"pref_cd":13,"post":"144-0052","add":"大田区蒲田４-５０-１０","lon":139.723681,"lat":35.560796,"open_ymd":"","close_ymd":"","e_sort":"2700112"},
{"station_cd":2700113,"station_g_cd":2700113,"station_name":"雑色","station_name_k":"ゾウシキ","station_name_r":"zoushiki","line_cd":27001,"pref_cd":13,"post":"144-0055","add":"大田区仲六郷２-４２-１","lon":139.715005,"lat":35.549725,"open_ymd":"","close_ymd":"","e_sort":"2700113"},
{"station_cd":2700114,"station_g_cd":2700114,"station_name":"六郷土手","station_name_k":"ロクゴウドテ","station_name_r":"rokugoudote","line_cd":27001,"pref_cd":13,"post":"144-0055","add":"大田区仲六郷４-２７-１１","lon":139.7076,"lat":35.540577,"open_ymd":"","close_ymd":"","e_sort":"2700114"},
{"station_cd":2700115,"station_g_cd":2700115,"station_name":"京急川崎","station_name_k":"ケイキュウカワサキ","station_name_r":"keikyuukawasaki","line_cd":27001,"pref_cd":14,"post":"210-0006","add":"川崎市川崎区砂子１-３-１","lon":139.700893,"lat":35.53285,"open_ymd":"","close_ymd":"","e_sort":"2700115"},
{"station_cd":2700116,"station_g_cd":1130326,"station_name":"八丁畷","station_name_k":"ハッチョウナワテ","station_name_r":"hacchounawate","line_cd":27001,"pref_cd":14,"post":"210-0022","add":"川崎市川崎区池田１丁目","lon":139.691346,"lat":35.523054,"open_ymd":"","close_ymd":"","e_sort":"2700116"},
{"station_cd":2700117,"station_g_cd":2700117,"station_name":"鶴見市場","station_name_k":"ツルミイチバ","station_name_r":"tsurumiichiba","line_cd":27001,"pref_cd":14,"post":"230-0025","add":"横浜市鶴見区市場大和町７-１","lon":139.68642,"lat":35.517594,"open_ymd":"","close_ymd":"","e_sort":"2700117"},
{"station_cd":2700118,"station_g_cd":1130401,"station_name":"京急鶴見","station_name_k":"ケイキュウツルミ","station_name_r":"keikyuutsurumi","line_cd":27001,"pref_cd":14,"post":"230-0051","add":"横浜市鶴見区鶴見中央１-３０-２２","lon":139.677743,"lat":35.507032,"open_ymd":"","close_ymd":"","e_sort":"2700118"},
{"station_cd":2700119,"station_g_cd":2700119,"station_name":"花月園前","station_name_k":"カゲツエンマエ","station_name_r":"kagetsuennmae","line_cd":27001,"pref_cd":14,"post":"230-0052","add":"横浜市鶴見区生麦５-１-３","lon":139.672813,"lat":35.500358,"open_ymd":"","close_ymd":"","e_sort":"2700119"},
{"station_cd":2700120,"station_g_cd":2700120,"station_name":"生麦","station_name_k":"ナマムギ","station_name_r":"namamugi","line_cd":27001,"pref_cd":14,"post":"230-0052","add":"横浜市鶴見区生麦３-１-３５","lon":139.6673,"lat":35.4956,"open_ymd":"","close_ymd":"","e_sort":"2700120"},
{"station_cd":2700121,"station_g_cd":1133233,"station_name":"京急新子安","station_name_k":"ケイキュウシンコヤス","station_name_r":"keikyuushinnkoyasu","line_cd":27001,"pref_cd":14,"post":"221-0021","add":"横浜市神奈川区子安通３-２８９","lon":139.655848,"lat":35.487242,"open_ymd":"","close_ymd":"","e_sort":"2700121"},
{"station_cd":2700122,"station_g_cd":2700122,"station_name":"子安","station_name_k":"コヤス","station_name_r":"koyasu","line_cd":27001,"pref_cd":14,"post":"221-0021","add":"横浜市神奈川区子安通１-４６","lon":139.644965,"lat":35.484556,"open_ymd":"","close_ymd":"","e_sort":"2700122"},
{"station_cd":2700123,"station_g_cd":2700123,"station_name":"神奈川新町","station_name_k":"カナガワシンマチ","station_name_r":"kanagawashinnmachi","line_cd":27001,"pref_cd":14,"post":"221-0041","add":"横浜市神奈川区亀住町１９-１","lon":139.640152,"lat":35.481559,"open_ymd":"","close_ymd":"","e_sort":"2700123"},
{"station_cd":2700124,"station_g_cd":1130601,"station_name":"仲木戸","station_name_k":"ナカキド","station_name_r":"nakakido","line_cd":27001,"pref_cd":14,"post":"221-0044","add":"横浜市神奈川区東神奈川１-１１-５","lon":139.634669,"lat":35.477412,"open_ymd":"","close_ymd":"","e_sort":"2700124"},
{"station_cd":2700125,"station_g_cd":2700125,"station_name":"神奈川","station_name_k":"カナガワ","station_name_r":"kanagawa","line_cd":27001,"pref_cd":14,"post":"221-0057","add":"横浜市神奈川区青木町１-１","lon":139.627364,"lat":35.471304,"open_ymd":"","close_ymd":"","e_sort":"2700125"},
{"station_cd":2700126,"station_g_cd":1130105,"station_name":"横浜","station_name_k":"ヨコハマ","station_name_r":"yokohama","line_cd":27001,"pref_cd":14,"post":"220-0011","add":"横浜市西区高島２丁目","lon":139.623055,"lat":35.466066,"open_ymd":"","close_ymd":"","e_sort":"2700126"},
{"station_cd":2700127,"station_g_cd":2700127,"station_name":"戸部","station_name_k":"トベ","station_name_r":"tobe","line_cd":27001,"pref_cd":14,"post":"220-0041","add":"横浜市西区戸部本町４８-１１","lon":139.61956,"lat":35.456631,"open_ymd":"","close_ymd":"","e_sort":"2700127"},
{"station_cd":2700128,"station_g_cd":2700128,"station_name":"日ノ出町","station_name_k":"ヒノデチョウ","station_name_r":"hinodechou","line_cd":27001,"pref_cd":14,"post":"231-0066","add":"横浜市中区日ノ出町１-３１","lon":139.626696,"lat":35.445524,"open_ymd":"","close_ymd":"","e_sort":"2700128"},
{"station_cd":2700129,"station_g_cd":2700129,"station_name":"黄金町","station_name_k":"コガネチョウ","station_name_r":"koganechou","line_cd":27001,"pref_cd":14,"post":"232-0005","add":"横浜市南区白金町１-１","lon":139.62246,"lat":35.439694,"open_ymd":"","close_ymd":"","e_sort":"2700129"},
{"station_cd":2700130,"station_g_cd":2700130,"station_name":"南太田","station_name_k":"ミナミオオタ","station_name_r":"minamioota","line_cd":27001,"pref_cd":14,"post":"232-0006","add":"横浜市南区南太田１-２５-１","lon":139.613408,"lat":35.436923,"open_ymd":"","close_ymd":"","e_sort":"2700130"},
{"station_cd":2700131,"station_g_cd":2700131,"station_name":"井土ヶ谷","station_name_k":"イドガヤ","station_name_r":"idogaya","line_cd":27001,"pref_cd":14,"post":"","add":"横浜市南区井土ケ谷中町","lon":139.60061,"lat":35.433895,"open_ymd":"","close_ymd":"","e_sort":"2700131"},
{"station_cd":2700132,"station_g_cd":2700132,"station_name":"弘明寺","station_name_k":"グミョウジ","station_name_r":"gumyoji","line_cd":27001,"pref_cd":14,"post":"","add":"横浜市南区弘明寺町267","lon":139.596791,"lat":35.42437,"open_ymd":"","close_ymd":"","e_sort":"2700132"},
{"station_cd":2700133,"station_g_cd":2700133,"station_name":"上大岡","station_name_k":"カミオオオカ","station_name_r":"kamioooka","line_cd":27001,"pref_cd":14,"post":"233-0002","add":"横浜市港南区上大岡西１-６-１","lon":139.596552,"lat":35.409418,"open_ymd":"","close_ymd":"","e_sort":"2700133"},
{"station_cd":2700134,"station_g_cd":2700134,"station_name":"屏風浦","station_name_k":"ビョウブガウラ","station_name_r":"byoubugaura","line_cd":27001,"pref_cd":14,"post":"235-0023","add":"横浜市磯子区森３-１８-６","lon":139.610387,"lat":35.394176,"open_ymd":"","close_ymd":"","e_sort":"2700134"},
{"station_cd":2700135,"station_g_cd":2700135,"station_name":"杉田","station_name_k":"スギタ","station_name_r":"sugita","line_cd":27001,"pref_cd":14,"post":"235-0033","add":"横浜市磯子区杉田２-１-９","lon":139.615734,"lat":35.383796,"open_ymd":"","close_ymd":"","e_sort":"2700135"},
{"station_cd":2700136,"station_g_cd":2700136,"station_name":"京急富岡","station_name_k":"ケイキュウトミオカ","station_name_r":"keikyuutomioka","line_cd":27001,"pref_cd":14,"post":"236-0052","add":"横浜市金沢区富岡西７-１-１","lon":139.629772,"lat":35.366743,"open_ymd":"","close_ymd":"","e_sort":"2700136"},
{"station_cd":2700137,"station_g_cd":2700137,"station_name":"能見台","station_name_k":"ノウケンダイ","station_name_r":"noukenndai","line_cd":27001,"pref_cd":14,"post":"236-0053","add":"横浜市金沢区能見台通２-１","lon":139.629233,"lat":35.360528,"open_ymd":"","close_ymd":"","e_sort":"2700137"},
{"station_cd":2700138,"station_g_cd":2700138,"station_name":"金沢文庫","station_name_k":"カナザワブンコ","station_name_r":"kanazawabunnko","line_cd":27001,"pref_cd":14,"post":"236-0016","add":"横浜市金沢区谷津町３８４","lon":139.621606,"lat":35.342966,"open_ymd":"","close_ymd":"","e_sort":"2700138"},
{"station_cd":2700139,"station_g_cd":2700139,"station_name":"金沢八景","station_name_k":"カナザワハッケイ","station_name_r":"kanazawahakkei","line_cd":27001,"pref_cd":14,"post":"236-0027","add":"横浜市金沢区瀬戸１５-１","lon":139.62018,"lat":35.331223,"open_ymd":"","close_ymd":"","e_sort":"2700139"},
{"station_cd":2700140,"station_g_cd":2700140,"station_name":"追浜","station_name_k":"オッパマ","station_name_r":"oppama","line_cd":27001,"pref_cd":14,"post":"237-0064","add":"横須賀市追浜町３-３","lon":139.624905,"lat":35.315461,"open_ymd":"","close_ymd":"","e_sort":"2700140"},
{"station_cd":2700141,"station_g_cd":2700141,"station_name":"京急田浦","station_name_k":"ケイキュウタウラ","station_name_r":"keikyuutaura","line_cd":27001,"pref_cd":14,"post":"237-0076","add":"横須賀市船越町５-２","lon":139.625252,"lat":35.300892,"open_ymd":"","close_ymd":"","e_sort":"2700141"},
{"station_cd":2700142,"station_g_cd":2700142,"station_name":"安針塚","station_name_k":"アンジンヅカ","station_name_r":"annjinnduka","line_cd":27001,"pref_cd":14,"post":"237-0072","add":"横須賀市長浦町２-３２","lon":139.64292,"lat":35.286641,"open_ymd":"","close_ymd":"","e_sort":"2700142"},
{"station_cd":2700143,"station_g_cd":2700143,"station_name":"逸見","station_name_k":"ヘミ","station_name_r":"hemi","line_cd":27001,"pref_cd":14,"post":"238-0045","add":"横須賀市東逸見町２-１８","lon":139.653149,"lat":35.28048,"open_ymd":"","close_ymd":"","e_sort":"2700143"},
{"station_cd":2700144,"station_g_cd":2700144,"station_name":"汐入","station_name_k":"シオイリ","station_name_r":"shioiri","line_cd":27001,"pref_cd":14,"post":"238-0042","add":"横須賀市汐入町２-４１","lon":139.662443,"lat":35.280241,"open_ymd":"","close_ymd":"","e_sort":"2700144"},
{"station_cd":2700145,"station_g_cd":2700145,"station_name":"横須賀中央","station_name_k":"ヨコスカチュウオウ","station_name_r":"yokosukachuuou","line_cd":27001,"pref_cd":14,"post":"238-0007","add":"横須賀市若松町２-２５","lon":139.670217,"lat":35.27858,"open_ymd":"","close_ymd":"","e_sort":"2700145"},
{"station_cd":2700146,"station_g_cd":2700146,"station_name":"県立大学","station_name_k":"ケンリツダイガク","station_name_r":"kennritsudaigaku","line_cd":27001,"pref_cd":14,"post":"238-0012","add":"横須賀市安浦町２-２８","lon":139.677033,"lat":35.269731,"open_ymd":"","close_ymd":"","e_sort":"2700146"},
{"station_cd":2700147,"station_g_cd":2700147,"station_name":"堀ノ内","station_name_k":"ホリノウチ","station_name_r":"horinouchi","line_cd":27001,"pref_cd":14,"post":"238-0014","add":"横須賀市三春町３-４５","lon":139.686932,"lat":35.26322,"open_ymd":"","close_ymd":"","e_sort":"2700147"},
{"station_cd":2700148,"station_g_cd":2700148,"station_name":"京急大津","station_name_k":"ケイキュウオオツ","station_name_r":"keikyuuootsu","line_cd":27001,"pref_cd":14,"post":"239-0808","add":"横須賀市大津町１-１１-１９","lon":139.695334,"lat":35.261068,"open_ymd":"","close_ymd":"","e_sort":"2700148"},
{"station_cd":2700149,"station_g_cd":2700149,"station_name":"馬堀海岸","station_name_k":"マボリカイガン","station_name_r":"maborikaigann","line_cd":27001,"pref_cd":14,"post":"239-0802","add":"横須賀市馬堀町３-２０-１","lon":139.707328,"lat":35.259651,"open_ymd":"","close_ymd":"","e_sort":"2700149"},
{"station_cd":2700150,"station_g_cd":2700150,"station_name":"浦賀","station_name_k":"ウラガ","station_name_r":"uraga","line_cd":27001,"pref_cd":14,"post":"239-0822","add":"横須賀市浦賀町１-８６","lon":139.714999,"lat":35.250933,"open_ymd":"","close_ymd":"","e_sort":"2700150"},
{"station_cd":2700201,"station_g_cd":2700112,"station_name":"京急蒲田","station_name_k":"ケイキュウカマタ","station_name_r":"keikyuukamata","line_cd":27002,"pref_cd":13,"post":"144-0052","add":"大田区蒲田４-５０-１０","lon":139.723681,"lat":35.560796,"open_ymd":"","close_ymd":"","e_sort":"2700201"},
{"station_cd":2700202,"station_g_cd":2700202,"station_name":"糀谷","station_name_k":"コウジヤ","station_name_r":"koujiya","line_cd":27002,"pref_cd":13,"post":"144-0034","add":"大田区西糀谷４-１３-１７","lon":139.72962,"lat":35.5545,"open_ymd":"","close_ymd":"","e_sort":"2700202"},